stop_id,stop_code,stop_name,stop_desc,stop_lat,stop_lon,zone_id,stop_url,location_type,wheelchair_boarding
1000,1000,"FRONT/CORMIER",,  45.404937, -75.854477,,,0,2
1001,1001,"FRONT/de la TERRASSE-EARDLEY",,  45.408163, -75.856295,,,0,2
1002,1002,"CORMIER/FRONT",,  45.404290, -75.854024,,,0,2
1004,1004,"EARDLEY/FRONT",,  45.401477, -75.854773,,,0,1
1005,1005,"FRONT/de la TERRASSE-EARDLEY",,  45.406665, -75.855729,,,0,1
1006,1006,"EARDLEY/FRONT",,  45.401653, -75.854754,,,0,1
1007,1007,"des ALLUMETTIÈRES/BROAD",,  45.409635, -75.848965,,,0,1
1009,1009,"des ALLUMETTIÈRES/KLOCK",,  45.409832, -75.850072,,,0,1
1016,1016,"BROOK/METCALFE",,  45.398072, -75.857162,,,0,1
1017,1017,"BEAULAC/du CANOTAGE",,  45.400620, -75.864076,,,0,1
1019,1019,"EARDLEY/ÉDOUARD-GAGNON",,  45.402875, -75.857159,,,0,1
1020,1020,"RAOUL-ROY/ARTHUR-CROTEAU",,  45.400293, -75.858773,,,0,2
1021,1021,"147 EARDLEY",,  45.404974, -75.860576,,,0,2
1022,1022,"RAOUL-ROY/HELENORE",,  45.398755, -75.858700,,,0,2
1023,1023,"147 EARDLEY",,  45.404807, -75.860497,,,0,2
1024,1024,"ARTHUR-CROTEAU/XAVIER",,  45.400531, -75.860534,,,0,2
1025,1025,"EARDLEY/RILEY",,  45.406576, -75.863360,,,0,2
1026,1026,"ARTHUR-CROTEAU/XAVIER",,  45.400316, -75.861629,,,0,2
1027,1027,"EARDLEY/RILEY",,  45.406432, -75.863472,,,0,2
1028,1028,"BEAULAC/XAVIER",,  45.400704, -75.863990,,,0,1
1030,1030,"BEAULAC/du KAYAK",,  45.402114, -75.866438,,,0,1
1031,1031,"BEAULAC/du CATAMARAN",,  45.403794, -75.869851,,,0,1
1034,1034,"EARDLEY/ÉDOUARD-GAGNON",,  45.403111, -75.857315,,,0,2
1037,1037,"BEAULAC/du KAYAK",,  45.401690, -75.865886,,,0,1
1038,1038,"FRONT/HARVEY",,  45.397370, -75.854762,,,0,2
1039,1039,"BEAULAC/du RAMEUR",,  45.403222, -75.868800,,,0,2
1040,1040,"FRONT/DERWIN",,  45.397891, -75.855024,,,0,2
1042,1042,"FRONT/CATHCART",,  45.395751, -75.854623,,,0,2
1043,1043,"LATTION/de BEAUPRÉ",,  45.408013, -75.870947,,,0,2
1044,1044,"FRONT/CATHCART",,  45.395750, -75.854725,,,0,1
1045,1045,"LATTION/de BEAUPRÉ",,  45.407907, -75.870741,,,0,2
1046,1046,"PRINCIPALE/TIBERIUS",,  45.394459, -75.852860,,,0,2
1047,1047,"BEAULAC/LATTION",,  45.404735, -75.872447,,,0,1
1048,1048,"PRINCIPALE/TIBERIUS",,  45.394365, -75.852542,,,0,1
1049,1049,"LATTION/BEAULAC",,  45.405337, -75.872440,,,0,2
1050,1050,"PRINCIPALE/JUBILEE",,  45.394592, -75.850744,,,0,1
1051,1051,"VANIER/du PLATEAU",,  45.421127, -75.809631,,,0,1
1052,1052,"PRINCIPALE/JUBILEE",,  45.394513, -75.850439,,,0,1
1053,1053,"VANIER/du PLATEAU",,  45.421100, -75.809834,,,0,2
1054,1054,"PRINCIPALE/PARKER",,  45.394749, -75.848067,,,0,2
1056,1056,"PRINCIPALE/PARKER",,  45.394669, -75.847877,,,0,2
1058,1058,"VANIER/ATTIKAMEKS",,  45.413188, -75.808609,,,0,1
1059,1059,"VANIER/ATTIKAMEKS",,  45.413639, -75.808436,,,0,1
1061,1061,"VANIER/ANTOINE-BOUCHER",,  45.426643, -75.815282,,,0,2
1064,1064,"PRINCIPALE/FRANK-ROBINSON",,  45.395243, -75.841298,,,0,1
1066,1066,"PRINCIPALE/WASHINGTON",,  45.395053, -75.841564,,,0,2
1068,1068,"FRANK-ROBINSON/PRINCIPALE",,  45.394657, -75.840768,,,0,1
1072,1072,"WILFRID-LAVIGNE/ PRINCIPALE",,  45.395958, -75.838520,,,0,1
1073,1073,"WILFRID-LAVIGNE/PRINCIPALE",,  45.397763, -75.838120,,,0,1
1074,1074,"WILFRID-LAVIGNE/PRINCIPALE",,  45.396413, -75.838113,,,0,1
1075,1075,"WILFRID-LAVIGNE/LEGUERRIER",,  45.398308, -75.837489,,,0,1
1076,1076,"WILFRID-LAVIGNE/LEGUERRIER",,  45.399207, -75.837656,,,0,1
1078,1078,"WILFRID-LAVIGNE/JOHN-EGAN",,  45.400107, -75.837329,,,0,1
1080,1080,"WILFRID-LAVIGNE/de la CORSE",,  45.401905, -75.837951,,,0,1
1082,1082,"WILFRID-LAVIGNE/de la CORSE",,  45.401881, -75.837591,,,0,1
1084,1084,"WILFRID-LAVIGNE/CHARLES-DEVLIN",,  45.404066, -75.837894,,,0,1
1085,1085,"VANIER/d'AMSTERDAM",,  45.427468, -75.815694,,,0,2
1086,1086,"WILFRID-LAVIGNE/CHARLES-DEVLIN",,  45.404153, -75.838266,,,0,1
1088,1088,"WILFRID-LAVIGNE/des RÉDEMPTORISTES",,  45.406698, -75.838632,,,0,1
1090,1090,"WILFRID-LAVIGNE/des RÉDEMPTORISTES",,  45.406943, -75.838291,,,0,1
1091,1091,"VANIER/des ALLUMETTIÈRES",,  45.416668, -75.808900,,,0,1
1092,1092,"WILFRID-LAVIGNE/de BRUYNE",,  45.409281, -75.838597,,,0,1
1093,1093,"WILFRID-LAVIGNE/JEAN-DELISLE",,  45.409817, -75.839074,,,0,1
1095,1095,"VANIER/de SÉTO",,  45.418824, -75.809410,,,0,2
1096,1096,"PARC-O-BUS ALLUMETTIÈRES arrêt d'arrivée",,  45.407098, -75.865783,,,0,1
1097,1097,"PARC-O-BUS ALLUMETTIÈRES",,  45.407032, -75.866201,,,0,1
1098,1098,"des ALLUMETTIÈRES/WILFRID-LAVIGNE",,  45.410555, -75.839522,,,0,1
1099,1099,"PARC-O-BUS ALLUMETTIÈRES",,  45.407107, -75.865835,,,0,1
1100,1100,"des ALLUMETTIÈRES/des CHAMPIGNONS",,  45.410329, -75.843021,,,0,1
1102,1102,"BROAD/WRIGHT",,  45.408756, -75.848825,,,0,1
1103,1103,"BROAD/JOHN-RONEY",,  45.407976, -75.847543,,,0,1
1106,1106,"BROAD/LOUIS-SAINT-LAURENT",,  45.407239, -75.846846,,,0,1
1108,1108,"FRONT/des ALLUMETTIÈRES",,  45.410318, -75.856529,,,0,1
1109,1109,"FRONT/des ALLUMETTIÈRES",,  45.410316, -75.856861,,,0,2
1110,1110,"FRONT/du VERGER",,  45.412463, -75.856880,,,0,2
1111,1111,"FRONT/du VERGER",,  45.412585, -75.857137,,,0,2
1116,1116,"des ALLUMETTIÈRES/FRONT",,  45.409333, -75.857038,,,0,1
1117,1117,"FRONT/des ALLUMETTIÈRES",,  45.408428, -75.856590,,,0,1
1119,1119,"des ALLUMETTIÈRES/FRONT",,  45.409151, -75.856115,,,0,1
1120,1120,"BAGOT/BROAD",,  45.402835, -75.845601,,,0,1
1121,1121,"BAGOT/PARKER",,  45.402731, -75.847930,,,0,1
1122,1122,"WILFRID-LAVIGNE/MAURICE-DUPLESSIS",,  45.420306, -75.845207,,,0,1
1123,1123,"WILFRID-LAVIGNE/MAURICE-DUPLESSIS",,  45.420440, -75.845425,,,0,1
1124,1124,"BROAD/BAGOT",,  45.403205, -75.844743,,,0,2
1127,1127,"WILFRID-LAVIGNE/LYSE-DANIELS",,  45.422207, -75.847364,,,0,1
1128,1128,"BROAD/LOUIS-SAINT-LAURENT",,  45.405634, -75.844971,,,0,1
1129,1129,"BROAD/LOUIS-SAINT-LAURENT",,  45.406274, -75.845601,,,0,1
1130,1130,"WILFRID-LAVIGNE/PAUL-BERTHIAUME",,  45.421940, -75.847136,,,0,1
1132,1132,"PARC-O-BUS ALLUMETTIÈRES",,  45.407261, -75.865607,,,0,1
1133,1133,"PARC-O-BUS ALLUMETTIÈRES",,  45.407187, -75.865976,,,0,1
1134,1134,"VANIER/AMÉRIQUE-FRANÇAISE",,  45.436522, -75.818800,,,0,2
1135,1135,"VANIER/AMÉRIQUE-FRANÇAISE",,  45.436383, -75.818624,,,0,2
1136,1136,"VANIER/de FRANCFORT",,  45.432781, -75.818234,,,0,2
1137,1137,"VANIER/de FRANCFORT",,  45.432820, -75.818117,,,0,2
1138,1138,"BAGOT/PARKER",,  45.402642, -75.847903,,,0,2
1139,1139,"VANIER/DUNKERQUE",,  45.430752, -75.817716,,,0,2
1140,1140,"CORMIER/BAGOT",,  45.402528, -75.851032,,,0,1
1141,1141,"CORMIER/CHARTIER",,  45.403937, -75.852322,,,0,1
1142,1142,"BAGOT/CORMIER",,  45.402558, -75.850586,,,0,1
1147,1147,"CORMIER/CHARTIER",,  45.404116, -75.852286,,,0,2
1151,1151,"WILFRID-LAVIGNE/PIERRE-DEBAIN",,  45.422674, -75.850050,,,0,1
1153,1153,"EARDLEY/PARKER",,  45.397779, -75.848188,,,0,1
1154,1154,"EARDLEY/PARKER",,  45.397662, -75.848262,,,0,1
1155,1155,"WILFRID-LAVIGNE/KLOCK",,  45.422787, -75.850275,,,0,1
1156,1156,"FRONT/de la TERRASSE-EARDLEY",,  45.405968, -75.855046,,,0,1
1158,1158,"FRANK-ROBINSON/du PATRIMOINE",,  45.394772, -75.840976,,,0,1
1159,1159,"EARDLEY/COURT",,  45.396051, -75.845349,,,0,1
1161,1161,"EARDLEY/ROMÉO-GENDRON",,  45.399112, -75.850419,,,0,1
1162,1162,"WYCHWOOD/LORD-AYLMER",,  45.392872, -75.842315,,,0,2
1163,1163,"EARDLEY/BROOK",,  45.398702, -75.850069,,,0,1
1164,1164,"WYCHWOOD/LORD-AYLMER",,  45.390263, -75.842071,,,0,2
1165,1165,"EARDLEY/GOULET",,  45.400180, -75.852281,,,0,1
1166,1166,"WYCHWOOD/LORD-AYLMER",,  45.392870, -75.842455,,,0,2
1167,1167,"EARDLEY/GOULET",,  45.400265, -75.852723,,,0,1
1168,1168,"LAKE/GLENHOLM",,  45.388401, -75.841234,,,0,2
1169,1169,"PRINCIPALE/ WILFRID-LAVIGNE",,  45.395400, -75.838873,,,0,1
1170,1170,"WYCHWOOD/LORD-AYLMER",,  45.390659, -75.842387,,,0,2
1171,1171,"Parc-O-Bus RIVERMEAD arrivée RIVERMEAD",,  45.404041, -75.793515,,,0,1
1172,1172,"PRINCIPALE/WILFRID-LAVIGNE",,  45.395176, -75.839325,,,0,1
1173,1173,"LAKE/GLENHOLM",,  45.388560, -75.841075,,,0,2
1174,1174,"LAKE/ELLESMERE",,  45.386670, -75.841035,,,0,2
1176,1176,"LAKE/ELLESMERE",,  45.386626, -75.840873,,,0,2
1178,1178,"LAKE/ARBUTUS",,  45.385233, -75.840668,,,0,2
1180,1180,"ARBUTUS/SARATOGA",,  45.384977, -75.839988,,,0,2
1182,1182,"ARBUTUS/BUTTERNUT",,  45.385083, -75.839027,,,0,2
1184,1184,"ARBUTUS/OAKWOOD",,  45.385073, -75.837945,,,0,2
1185,1185,"PINE/ARBUTUS",,  45.385442, -75.836622,,,0,2
1186,1186,"PINE/ARBUTUS",,  45.385576, -75.836491,,,0,2
1188,1188,"de LUCERNE/PINE",,  45.387515, -75.836359,,,0,2
1190,1190,"PINE/GLENHOLM",,  45.387141, -75.836829,,,0,2
1191,1191,"de LUCERNE/RIESLING",,  45.386212, -75.829787,,,0,2
1192,1192,"de LUCERNE/EASTERN",,  45.385528, -75.827074,,,0,2
1193,1193,"de LUCERNE/RIESLING",,  45.386273, -75.830582,,,0,2
1194,1194,"de LUCERNE/EASTERN",,  45.385644, -75.827084,,,0,2
1201,1201,"ELIZABETH/BELMONT",,  45.392950, -75.831648,,,0,2
1203,1203,"ELIZABETH/BELMONT",,  45.392864, -75.831110,,,0,1
1204,1204,"BELMONT/GLENWOOD",,  45.389910, -75.828729,,,0,1
1205,1205,"GLENWOOD/MONTGOMERY",,  45.390964, -75.825518,,,0,2
1206,1206,"BELMONT/GLENWOOD",,  45.390090, -75.828745,,,0,2
1207,1207,"GLENWOOD/MONTGOMERY",,  45.391011, -75.826468,,,0,1
1208,1208,"BELMONT/WINSTON-CHURCHILL",,  45.391064, -75.830025,,,0,2
1209,1209,"ELIZABETH/BORDEAUX",,  45.392746, -75.834929,,,0,1
1210,1210,"BELMONT/WINSTON-CHURCHILL",,  45.391429, -75.830387,,,0,2
1211,1211,"ELIZABETH/MALBEC",,  45.392650, -75.834212,,,0,1
1220,1220,"chemin d'AYLMER/de la COLLINE",,  45.395621, -75.832159,,,0,1
1222,1222,"chemin d'AYLMER/de la COLLINE",,  45.395775, -75.832928,,,0,1
1224,1224,"chemin d'AYLMER/du BORDEAUX",,  45.395447, -75.834979,,,0,1
1226,1226,"PRINCIPALE/du BORDEAUX",,  45.395593, -75.836203,,,0,1
1230,1230,"chemin d'AYLMER/BELMONT",,  45.395929, -75.830612,,,0,1
1232,1232,"chemin d'AYLMER/BELMONT",,  45.395781, -75.830238,,,0,1
1233,1233,"chemin d'AYLMER/SAMUEL-EDEY",,  45.396129, -75.828055,,,0,2
1234,1234,"chemin d'AYLMER/FRASER",,  45.396343, -75.825113,,,0,1
1247,1247,"FRASER/RIOPELLE",,  45.387428, -75.823047,,,0,1
1248,1248,"FRASER/CHAPEL",,  45.390128, -75.823584,,,0,2
1250,1250,"FRASER/CHAPEL",,  45.389679, -75.823361,,,0,1
1251,1251,"de LUCERNE/VICTOR-BEAUDRY",,  45.385258, -75.812221,,,0,2
1252,1252,"FRASER/RIOPELLE",,  45.387899, -75.823275,,,0,2
1253,1253,"de LUCERNE/VICTOR-BEAUDRY",,  45.384945, -75.813003,,,0,2
1254,1254,"FRASER/LOUIS",,  45.385809, -75.822807,,,0,1
1258,1258,"de LUCERNE/FRASER",,  45.384739, -75.821884,,,0,2
1259,1259,"FRASER/LOUIS",,  45.386351, -75.823048,,,0,2
1261,1261,"de LUCERNE/FRASER",,  45.384646, -75.822266,,,0,2
1263,1263,"CÔTÉ/LUCERNE",,  45.385249, -75.809255,,,0,2
1265,1265,"CÔTÉ/LUCERNE",,  45.385250, -75.809230,,,0,2
1268,1268,"de LUCERNE/GARDEN",,  45.385725, -75.809839,,,0,2
1279,1279,"PARC-O-BUS RIVERMEAD",,  45.404328, -75.794443,,,0,1
1280,1280,"chemin d'AYLMER/HAYDON",,  45.398954, -75.809722,,,0,1
1281,1281,"d'HOCHELAGA/ATHOLL DOUNE",,  45.427899, -75.788948,,,0,2
1282,1282,"chemin d'AYLMER/GARDEN",,  45.398495, -75.811568,,,0,2
1283,1283,"CÔTÉ/DESCHÊNES",,  45.383995, -75.809070,,,0,2
1284,1284,"chemin d'AYLMER/MAPLE GROVE",,  45.397781, -75.812957,,,0,1
1285,1285,"CÔTÉ/LAMOUREUX",,  45.381507, -75.808673,,,0,2
1286,1286,"chemin d'AYLMER/du GOLF",,  45.397664, -75.813871,,,0,1
1287,1287,"LAMOUREUX/VANIER",,  45.381280, -75.804749,,,0,1
1288,1288,"chemin d'AYLMER/VICTOR-BEAUDRY",,  45.396742, -75.817695,,,0,1
1289,1289,"VANIER/MADAIRE",,  45.383579, -75.804749,,,0,1
1290,1290,"chemin d'AYLMER/GRIMES",,  45.396895, -75.818284,,,0,1
1291,1291,"VANIER/SAINT-MÉDARD",,  45.385833, -75.804860,,,0,1
1293,1293,"MCCONNELL/des MANOIRS",,  45.413410, -75.795313,,,0,2
1294,1294,"chemin d'AYLMER/FOLEY",,  45.396600, -75.822065,,,0,2
1295,1295,"des MANOIRS/MCCONNELL",,  45.413549, -75.795668,,,0,2
1296,1296,"chemin d'AYLMER/FRASER",,  45.396261, -75.824057,,,0,1
1297,1297,"chemin d'AYLMER/VANIER",,  45.400828, -75.805022,,,0,2
1299,1299,"de LUCERNE/RIVERMEAD",,  45.391006, -75.795126,,,0,2
1301,1301,"RIVERMEAD/ÉMILE-ZOLA",,  45.411307, -75.794422,,,0,2
1302,1302,"RIVERMEAD/ÉMILE-ZOLA",,  45.410859, -75.794211,,,0,2
1303,1303,"VANIER/KILROY",,  45.439038, -75.819002,,,0,2
1304,1304,"CÔTÉ/DESCHÊNES",,  45.383998, -75.809033,,,0,2
1305,1305,"CÔTÉ/DESCHÊNES",,  45.383842, -75.808867,,,0,2
1306,1306,"RIVERMEAD/JEAN-DE LA FONTAINE",,  45.406013, -75.793789,,,0,2
1307,1307,"RIVERMEAD/JEAN-DE LA FONTAINE",,  45.407568, -75.793766,,,0,2
1308,1308,"CÔTÉ/LAMOUREUX",,  45.381508, -75.808641,,,0,2
1309,1309,"LAMOUREUX/CÔTÉ",,  45.381321, -75.808244,,,0,2
1310,1310,"LAMOUREUX/VANIER",,  45.381261, -75.804743,,,0,1
1311,1311,"LAMOUREUX/VANIER",,  45.381367, -75.805052,,,0,2
1312,1312,"VANIER/MADAIRE",,  45.383580, -75.804697,,,0,1
1313,1313,"VANIER/MADAIRE",,  45.383690, -75.804941,,,0,1
1316,1316,"VANIER/SAINT-MÉDARD",,  45.385829, -75.804922,,,0,1
1317,1317,"VANIER/de LUCERNE",,  45.386103, -75.805144,,,0,1
1318,1318,"JEAN-DE LA FONTAINE/ALEXANDRE-DUMAS",,  45.411998, -75.798572,,,0,2
1319,1319,"JEAN-DE LA FONTAINE/MCCONNELL",,  45.413032, -75.798521,,,0,1
1320,1320,"de LUCERNE/ROYALE",,  45.414964, -75.761804,,,0,2
1321,1321,"de LUCERNE/ROYALE",,  45.414917, -75.761666,,,0,2
1323,1323,"VANIER/KILROY",,  45.439036, -75.819168,,,0,2
1324,1324,"VANIER/CALVADOS",,  45.389040, -75.805399,,,0,1
1326,1326,"VANIER/de LUCERNE",,  45.387224, -75.805091,,,0,1
1327,1327,"VANIER/de LUCERNE",,  45.387225, -75.805026,,,0,2
1328,1328,"VANIER/CRESCENT",,  45.390616, -75.805388,,,0,1
1329,1329,"VANIER/CRESCENT",,  45.390616, -75.805324,,,0,2
1330,1330,"VANIER/CRESCENT",,  45.391246, -75.805613,,,0,2
1332,1332,"VANIER/des VÉTÉRANS",,  45.393765, -75.805802,,,0,2
1333,1333,"MCCONNELL/MORLEY-WALTERS",,  45.412660, -75.804340,,,0,2
1334,1334,"VANIER/des VÉTÉRANS",,  45.394132, -75.805689,,,0,1
1335,1335,"MCCONNELL/des MANOIRS",,  45.413288, -75.795812,,,0,2
1336,1336,"VANIER/CRESCENT",,  45.396625, -75.806045,,,0,1
1337,1337,"VANIER/des VÉTÉRANS",,  45.394132, -75.805640,,,0,2
1338,1338,"VANIER/CRESCENT",,  45.396375, -75.805878,,,0,1
1339,1339,"VANIER/CRESCENT",,  45.396375, -75.805814,,,0,2
1340,1340,"VANIER/LYNN",,  45.398222, -75.806222,,,0,2
1342,1342,"VANIER/LYNN",,  45.398578, -75.806125,,,0,1
1343,1343,"VANIER/LYNN",,  45.398579, -75.806023,,,0,2
1347,1347,"MCCONNELL/MORLEY-WALTERS",,  45.412810, -75.803632,,,0,2
1348,1348,"chemin d'AYLMER/MORLEY-WALTERS",,  45.401418, -75.802766,,,0,1
1350,1350,"chemin d'AYLMER/MORLEY-WALTERS",,  45.401583, -75.802903,,,0,2
1352,1352,"chemin d'AYLMER/de l'HIPPODROME",,  45.402861, -75.799261,,,0,1
1354,1354,"chemin d'AYLMER/VANIER",,  45.400081, -75.807096,,,0,1
1355,1355,"chemin d'AYLMER/de l'HIPPODROME",,  45.402477, -75.799797,,,0,1
1358,1358,"PARC-O-BUS RIVERMEAD",,  45.404468, -75.794122,,,0,1
1363,1363,"chemin d'AYLMER/de HONFLEUR",,  45.405845, -75.790384,,,0,2
1365,1365,"d'HOCHELAGA/ATHOLL DOUNE",,  45.427997, -75.789006,,,0,2
1366,1366,"chemin d'AYLMER/ALLEN",,  45.408611, -75.782677,,,0,2
1367,1367,"MCCONNELL/CASTELBEAU",,  45.412881, -75.801421,,,0,2
1368,1368,"chemin d'AYLMER/ALLEN",,  45.408309, -75.784019,,,0,1
1369,1369,"MCCONNELL/CASTELBEAU",,  45.412976, -75.801528,,,0,2
1374,1374,"chemin d'AYLMER/CHAUDIÈRE",,  45.410618, -75.776828,,,0,1
1376,1376,"chemin d'AYLMER/CHAUDIÈRE",,  45.410504, -75.777785,,,0,2
1377,1377,"PARC-O-BUS RIVERMEAD",,  45.403798, -75.793461,,,0,1
1378,1378,"chemin d'AYLMER/BERKLY-POWELL",,  45.413534, -75.768766,,,0,2
1379,1379,"PINK/AUGUSTE-MONDOUX",,  45.442123, -75.814565,,,0,2
1381,1381,"chemin d'AYLMER/SAMUEL-DE-CHAMPLAIN",,  45.414542, -75.766404,,,0,2
1382,1382,"chemin d'AYLMER/ROYALE",,  45.416296, -75.762768,,,0,1
1383,1383,"chemin d'AYLMER/SAMUEL-DE-CHAMPLAIN",,  45.414839, -75.765000,,,0,2
1384,1384,"chemin d'AYLMER/ROYALE",,  45.416118, -75.762719,,,0,2
1386,1386,"chemin d'AYLMER/d'AUGUSTA",,  45.411874, -75.773434,,,0,1
1388,1388,"chemin d'AYLMER/d'AUGUSTA",,  45.411990, -75.773664,,,0,2
1391,1391,"de la MONTAGNE/VANIER",,  45.463920, -75.822083,,,0,2
1392,1392,"de la MONTAGNE/VANIER",,  45.463710, -75.821677,,,0,2
1393,1393,"MCCONNELL/JEAN-DE LA FONTAINE",,  45.413067, -75.798984,,,0,2
1394,1394,"MCCONNELL/de BEAUMARCHAIS",,  45.413198, -75.798283,,,0,2
1395,1395,"PINK/AUGUSTE-MONDOUX",,  45.441943, -75.815483,,,0,2
1396,1396,"JEAN-DE LA FONTAINE/PIERRE-DE RONSARD",,  45.408843, -75.799256,,,0,2
1397,1397,"JEAN-DE LA FONTAINE/PIERRE-DE RONSARD",,  45.408755, -75.799000,,,0,1
1398,1398,"chemin d'AYLMER/d'AMOUR",,  45.406419, -75.789289,,,0,2
1399,1399,"chemin d'AYLMER/d'AMOUR",,  45.406395, -75.788820,,,0,2
1400,1400,"JEAN-DE LA FONTAINE/ÉMILE-ZOLA",,  45.407109, -75.795622,,,0,2
1401,1401,"JEAN-DE LA FONTAINE/ÉMILE-ZOLA",,  45.407179, -75.795967,,,0,1
1402,1402,"PINK/du CONSERVATOIRE",,  45.442343, -75.811224,,,0,2
1403,1403,"PINK/du CONSERVATOIRE",,  45.442197, -75.811063,,,0,2
1404,1404,"de la COLLINE/chemin d'AYLMER",,  45.396189, -75.831824,,,0,1
1405,1405,"PINK/du PRADO",,  45.442739, -75.804570,,,0,2
1406,1406,"de la COLLINE/chemin d'AYLMER",,  45.396188, -75.831990,,,0,2
1407,1407,"PINK/du PRADO",,  45.442624, -75.804399,,,0,2
1408,1408,"de la COLLINE/des EXPLORATEURS",,  45.398390, -75.832256,,,0,1
1409,1409,"PINK/de VERNON",,  45.443029, -75.800536,,,0,2
1410,1410,"de la COLLINE/des ARTISANS",,  45.398418, -75.832439,,,0,2
1411,1411,"PINK/de VERNON",,  45.442988, -75.799641,,,0,2
1412,1412,"de la COLLINE/du VALLON",,  45.400922, -75.831613,,,0,1
1413,1413,"chemin D'AYLMER/VANIER",,  45.399812, -75.807257,,,0,1
1416,1416,"du VALLON/de la COLLINE",,  45.401283, -75.831270,,,0,1
1420,1420,"du VALLON/des DRAVEURS",,  45.403320, -75.831574,,,0,2
1421,1421,"VANIER/chemin d'AYLMER",,  45.399716, -75.806273,,,0,1
1422,1422,"VANIER/chemin d'AYLMER",,  45.399717, -75.806209,,,0,2
1423,1423,"des ALLUMETTIÈRES/des CHAMPIGNONS",,  45.410023, -75.843169,,,0,1
1426,1426,"WILFRID-LAVIGNE/JEAN-LESAGE",,  45.418055, -75.845066,,,0,1
1428,1428,"WILFRID-LAVIGNE/des THUYAS",,  45.417412, -75.844268,,,0,1
1429,1429,"WILFRID-LAVIGNE/du BOIS-FRANC",,  45.415926, -75.841713,,,0,1
1430,1430,"WILFRID-LAVIGNE/du BOIS FRANC",,  45.416448, -75.843215,,,0,1
1431,1431,"WILFRID-LAVIGNE/des PINACÉES",,  45.415150, -75.840952,,,0,1
1432,1432,"WILFRID-LAVIGNE/des PINACÉES",,  45.413950, -75.839281,,,0,1
1433,1433,"WILFRID-LAVIGNE/des ALLUMETTIÈRES",,  45.411759, -75.839333,,,0,2
1434,1434,"WILFRID-LAVIGNE/du VERGER",,  45.413004, -75.839502,,,0,1
1436,1436,"WILFRID-LAVIGNE/des ALLUMETTIÈRES",,  45.411170, -75.838855,,,0,1
1444,1444,"SAMUEL-EDEY/des PAYSANS",,  45.408901, -75.829379,,,0,1
1446,1446,"SAMUEL-EDEY/des PAYSANS",,  45.409171, -75.829254,,,0,1
1448,1448,"du CAVEAU/SAMUEL-EDEY",,  45.406738, -75.829359,,,0,2
1450,1450,"du CAVEAU/SAMUEL-EDEY",,  45.406567, -75.829695,,,0,1
1451,1451,"des ALLUMETTIÈRES/WILFRID-LAVIGNE",,  45.410363, -75.838383,,,0,1
1452,1452,"du VALLON/du CAVEAU",,  45.405845, -75.831938,,,0,2
1454,1454,"du VALLON/du CAVEAU",,  45.405830, -75.832118,,,0,1
1456,1456,"du VALLON/des DRAVEURS",,  45.403393, -75.831405,,,0,2
1458,1458,"chemin d'AYLMER/RIVERMEAD",,  45.404763, -75.794053,,,0,1
1459,1459,"du CONSERVATOIRE/du LOUVRE",,  45.441526, -75.810804,,,0,2
1460,1460,"du CONSERVATOIRE/du LOUVRE",,  45.441463, -75.810639,,,0,2
1461,1461,"du LOUVRE/du GRAND-PALAIS",,  45.441200, -75.806929,,,0,1
1462,1462,"du LOUVRE/du GRAND-PALAIS",,  45.441336, -75.806744,,,0,2
1463,1463,"du PRADO/d'ANDROMÈDE",,  45.440358, -75.803871,,,0,1
1464,1464,"du PRADO/de l'ACROPOLE",,  45.440204, -75.804232,,,0,1
1465,1465,"d'ANDROMÈDE/de la PETITE-OURSE",,  45.440577, -75.800766,,,0,2
1466,1466,"d'ANDROMÈDE/de la PETITE-OURSE",,  45.440627, -75.801753,,,0,1
1467,1467,"d'ANDROMÈDE/de la NOVA",,  45.442167, -75.799105,,,0,2
1468,1468,"d'ANDROMÈDE/de la NOVA",,  45.442335, -75.798297,,,0,1
1470,1470,"KLOCK/des TILLEULS",,  45.410409, -75.849815,,,0,2
1471,1471,"KLOCK/des ALLUMETTIÈRES",,  45.410371, -75.849565,,,0,2
1472,1472,"KLOCK/du VERGER",,  45.412255, -75.850051,,,0,1
1480,1480,"du RATON-LAVEUR/FRONT",,  45.416650, -75.854126,,,0,2
1481,1481,"du RATON-LAVEUR/FRONT",,  45.416645, -75.854295,,,0,2
1482,1482,"du RATON-LAVEUR/de la MARMOTTE",,  45.419841, -75.854976,,,0,2
1483,1483,"du RATON-LAVEUR/du LOUP-GRIS",,  45.419795, -75.855149,,,0,2
1484,1484,"du RATON-LAVEUR/de la MARMOTTE",,  45.421698, -75.856241,,,0,2
1485,1485,"SAMUEL-EDEY/MCCONNELL",,  45.411153, -75.829514,,,0,2
1486,1486,"SAMUEL-EDEY/des CHASSEURS",,  45.410340, -75.829581,,,0,1
1488,1488,"du RATON-LAVEUR/ANTOINE-BOUCHER",,  45.423603, -75.856555,,,0,2
1489,1489,"du RATON-LAVEUR/de la MARMOTTE",,  45.422646, -75.856571,,,0,2
1490,1490,"du VERGER/des PIVOINES",,  45.412552, -75.849303,,,0,2
1492,1492,"du VERGER/des HYDRANGÉES",,  45.412780, -75.846070,,,0,2
1493,1493,"du VERGER/des HYDRANGÉES",,  45.412869, -75.846493,,,0,1
1494,1494,"du VERGER/des CHAMPIGNONS",,  45.412932, -75.843840,,,0,1
1495,1495,"du VERGER/des CHAMPIGNONS",,  45.413097, -75.843129,,,0,1
1497,1497,"du VERGER/des TRÈFLES",,  45.413326, -75.839973,,,0,1
1500,1500,"VICTOR-BEAUDRY/NORVAL-JONES",,  45.386693, -75.813072,,,0,2
1501,1501,"VICTOR-BEAUDRY/NORVAL-JONES",,  45.386874, -75.812909,,,0,1
1502,1502,"VICTOR-BEAUDRY/GUILFORD-BOOTH",,  45.390640, -75.814969,,,0,2
1503,1503,"VICTOR-BEAUDRY/GUILFORD-BOOTH",,  45.390464, -75.814378,,,0,1
1504,1504,"VICTOR-BEAUDRY/JAMES-BYRNE",,  45.394016, -75.817407,,,0,2
1505,1505,"VICTOR-BEAUDRY/JAMES-BYRNE",,  45.394489, -75.817886,,,0,1
1506,1506,"VICTOR-BEAUDRY/ARTHUR-QUESNEL",,  45.396466, -75.818438,,,0,2
1520,1520,"du BORDEAUX/du MALBEC",,  45.394695, -75.835482,,,0,1
1521,1521,"du BORDEAUX/du MALBEC",,  45.394633, -75.835276,,,0,1
1536,1536,"de la COLLINE/des CARAVELLES",,  45.400542, -75.832732,,,0,2
1550,1550,"FRONT/du MARCHÉ",,  45.414908, -75.857593,,,0,2
1551,1551,"FRONT/du MARCHÉ",,  45.414946, -75.857776,,,0,2
1552,1552,"FRONT/du RENARD",,  45.416089, -75.856333,,,0,2
1553,1553,"FRONT/du RENARD",,  45.416240, -75.856079,,,0,2
1558,1558,"PRINCIPALE/BANCROFT",,  45.394867, -75.846435,,,0,2
1559,1559,"PARK/SYMMES",,  45.395520, -75.844346,,,0,1
1560,1560,"PRINCIPALE/BROAD",,  45.394902, -75.843768,,,0,1
1561,1561,"des ALLUMETTIÈRES/SAMUEL-EDEY",,  45.412393, -75.831712,,,0,1
1562,1562,"des ALLUMETTIÈRES/SAMUEL-EDEY",,  45.412565, -75.830621,,,0,2
1563,1563,"SAMUEL-EDEY/des ALLUMETTIÈRES",,  45.412147, -75.830840,,,0,1
1564,1564,"de LUCERNE",,  45.416194, -75.759883,,,0,2
1565,1565,"de LUCERNE",,  45.416175, -75.760131,,,0,2
2000,2000,"ALEXANDRE-TACHÉ/SAINT-RAYMOND",,  45.418390, -75.758938,,,0,1
2002,2002,"ALEXANDRE-TACHÉ/SAINT-RAYMOND",,  45.417664, -75.759785,,,0,1
2004,2004,"ALEXANDRE-TACHÉ/SAINT-DOMINIQUE",,  45.420099, -75.754056,,,0,1
2006,2006,"ALEXANDRE-TACHÉ/SAINT-DOMINIQUE",,  45.419952, -75.753848,,,0,1
2007,2007,"LUCERNE/ST-DOMINIQUE",,  45.419655, -75.753946,,,0,2
2008,2008,"CEGEP GABRIELLE-ROY/arrivée",,  45.458696, -75.767392,,,0,1
2009,2009,"LUCERNE/ST-DOMINIQUE",,  45.419529, -75.753991,,,0,2
2010,2010,"CEGEP GABRIELLE-ROY #1",,  45.458793, -75.767415,,,0,1
2011,2011,"CEGEP GABRIELLE-ROY",,  45.458776, -75.767012,,,0,1
2012,2012,"CEGEP GABRIELLE-ROY #2",,  45.459006, -75.767505,,,0,1
2013,2013,"CEGEP GABRIELLE-ROY #3",,  45.459136, -75.767640,,,0,1
2014,2014,"CEGEP GABRIELLE-ROY #4",,  45.459278, -75.767795,,,0,1
2015,2015,"CEGEP GABRIELLE-ROY #5",,  45.459413, -75.767917,,,0,1
2020,2020,"LIONEL-ÉMOND/SAINT-RAYMOND",,  45.445375, -75.747868,,,0,2
2022,2022,"ALEXANDRE-TACHÉ/BOUDRIA",,  45.421183, -75.748575,,,0,1
2023,2023,"ALEXANDRE-TACHÉ/SAINTE-THÉRÈSE",,  45.420691, -75.751140,,,0,1
2024,2024,"ALEXANDRE-TACHÉ/BOUDRIA",,  45.421161, -75.748136,,,0,1
2025,2025,"ALEXANDRE-TACHÉ/SAINTE-THÉRÈSE",,  45.420511, -75.751234,,,0,2
2026,2026,"ALEXANDRE-TACHÉ/BÉGIN",,  45.421555, -75.746068,,,0,1
2027,2027,"LIONEL-ÉMOND/GAMELIN",,  45.443345, -75.747665,,,0,2
2028,2028,"ALEXANDRE-TACHÉ/BÉGIN",,  45.421741, -75.745896,,,0,1
2033,2033,"de la CITÉ-DES-JEUNES/NOUVELLE-FRONTIÈRE",,  45.443429, -75.750562,,,0,1
2035,2035,"de la CITÉ-DES-JEUNES/SAINT-RAYMOND",,  45.445073, -75.750786,,,0,2
2044,2044,"ALEXANDRE-TACHÉ/COALLIER",,  45.422093, -75.743330,,,0,1
2046,2046,"ALEXANDRE-TACHÉ/HORMIDAS-DUPUIS",,  45.422440, -75.742377,,,0,1
2051,2051,"TERMINUS FREEMAN",,  45.473557, -75.740963,,,0,1
2053,2053,"TERMINUS FREEMAN",,  45.473433, -75.741167,,,0,1
2058,2058,"ALEXANDRE-TACHÉ/CHÂTEAUBRIAND",,  45.422973, -75.737986,,,0,1
2060,2060,"ALEXANDRE-TACHÉ/CHÂTEAUBRIAND",,  45.422770, -75.738618,,,0,1
2064,2064,"ALEXANDRE-TACHÉ/SAINT-JOSEPH",,  45.423397, -75.732666,,,0,1
2065,2065,"ALEXANDRE-TACHÉ/SAINT-JOSEPH",,  45.423589, -75.732474,,,0,1
2066,2066,"SAINT-JOSEPH/RENÉ-ROGER",,  45.424137, -75.733425,,,0,1
2068,2068,"SAINT-JOSEPH/RENÉ-ROGER",,  45.424586, -75.733622,,,0,1
2070,2070,"SAINT-JOSEPH/DUQUESNE",,  45.426413, -75.733427,,,0,2
2072,2072,"SAINT-JOSEPH/DUQUESNE",,  45.426396, -75.733559,,,0,1
2078,2078,"SAINT-JOSEPH/SAINT-JEAN-BOSCO",,  45.428401, -75.733477,,,0,1
2080,2080,"SAINT-JOSEPH/SAINT-JEAN-BOSCO",,  45.428392, -75.733308,,,0,2
2082,2082,"SAINT-JOSEPH/de LORIMIER",,  45.430066, -75.733413,,,0,2
2084,2084,"SAINT-JOSEPH/MONTCALM",,  45.430889, -75.733256,,,0,1
2085,2085,"SAINT-RAYMOND/LIONEL-ÉMOND",,  45.446213, -75.749811,,,0,1
2088,2088,"SAINT-JOSEPH/DALPÉ",,  45.433410, -75.733097,,,0,1
2089,2089,"CENTRE ASTICOU",,  45.450505, -75.761850,,,0,1
2092,2092,"SAINT-JOSEPH/WìGWÀS",,  45.434905, -75.733027,,,0,1
2093,2093,"ROUTE 105/PONT ALONZO WRIGHT",,  45.482210, -75.749187,,,0,2
2094,2094,"SAINT-JOSEPH/WìGWÀS",,  45.434093, -75.733263,,,0,1
2095,2095,"ROUTE 105/PONT ALONZO WRIGHT",,  45.482268, -75.749968,,,0,2
2096,2096,"SAINT-JOSEPH/BRODEUR",,  45.436630, -75.732947,,,0,1
2097,2097,"PONT ALONZO WRIGHT/ROUTE 105",,  45.484242, -75.750865,,,0,2
2098,2098,"SAINT-JOSEPH/MONSEIGNEUR-BEAUDOIN",,  45.436001, -75.733168,,,0,1
2099,2099,"des GRIVES/de l'ATMOSPHÈRE",,  45.438582, -75.786173,,,0,2
2101,2101,"des GRIVES/de l'ARC-EN-CIEL",,  45.440977, -75.786348,,,0,1
2103,2103,"des GRIVES/de l'ARC-EN-CIEL",,  45.441116, -75.785890,,,0,1
2104,2104,"SAINT-JOSEPH/NICOLET",,  45.439323, -75.732729,,,0,1
2106,2106,"SAINT-JOSEPH/NICOLET",,  45.438431, -75.733031,,,0,1
2107,2107,"SAINT-JOSEPH/JEANNE-D'ARC",,  45.439613, -75.732987,,,0,1
2108,2108,"SAINT-JOSEPH/SAINTE-MARIE",,  45.441668, -75.732635,,,0,1
2110,2110,"SAINT-JOSEPH/SAINTE-MARIE",,  45.442024, -75.732887,,,0,1
2112,2112,"SAINT-JOSEPH/GAMELIN",,  45.444754, -75.732822,,,0,1
2113,2113,"des GRIVES/du COSMOS",,  45.442793, -75.785246,,,0,1
2114,2114,"SAINT-JOSEPH/GAMELIN",,  45.444846, -75.732542,,,0,1
2115,2115,"des GRIVES/du COSMOS",,  45.442818, -75.785511,,,0,1
2116,2116,"SAINT-JOSEPH/CHARLES-CHURCH",,  45.448471, -75.734262,,,0,1
2118,2118,"SAINT-JOSEPH/CHARLES-CHURCH",,  45.448933, -75.734568,,,0,1
2119,2119,"des GRIVES/de la ROSÉE",,  45.439350, -75.786960,,,0,1
2120,2120,"SAINT-JOSEPH/RENÉ-MARENGÈRE",,  45.450272, -75.736132,,,0,1
2122,2122,"SAINT-JOSEPH/RENÉ-MARENGÈRE",,  45.449751, -75.735778,,,0,1
2124,2124,"SAINT-JOSEPH/CURÉ-ROBERT",,  45.451528, -75.737923,,,0,1
2125,2125,"des GRIVES/de l'ATMOSPHERE",,  45.437569, -75.785566,,,0,1
2126,2126,"SAINT-JOSEPH/CURÉ-ROBERT",,  45.451532, -75.737703,,,0,1
2128,2128,"SAINT-JOSEPH/VALIN",,  45.452902, -75.739540,,,0,1
2130,2130,"SAINT-JOSEPH/VALIN",,  45.453209, -75.739588,,,0,1
2131,2131,"des GRIVES/du PLATEAU",,  45.435706, -75.780731,,,0,1
2132,2132,"SAINT-JOSEPH/CHARRON",,  45.454838, -75.741014,,,0,1
2133,2133,"du PLATEAU/des GRIVES",,  45.435397, -75.779357,,,0,1
2134,2134,"SAINT-JOSEPH/CHARRON",,  45.455115, -75.741029,,,0,1
2136,2136,"du PLATEAU/des GRIVES",,  45.435043, -75.781135,,,0,1
2137,2137,"du PLATEAU/du SATELLITE",,  45.436029, -75.777128,,,0,1
2138,2138,"SAINT-JOSEPH/MEUNIER",,  45.457083, -75.742510,,,0,1
2139,2139,"du PLATEAU/du SATELLITE",,  45.435855, -75.776214,,,0,1
2140,2140,"SAINT-JOSEPH/MEUNIER",,  45.458286, -75.742079,,,0,1
2141,2141,"SAINT-JOSEPH/ISABELLE",,  45.459316, -75.741812,,,0,1
2142,2142,"SAINT-JOSEPH/JEAN-PROULX",,  45.464244, -75.739407,,,0,1
2143,2143,"SAINT-JOSEPH/JEAN-PROULX",,  45.465960, -75.738559,,,0,1
2144,2144,"SAINT-JOSEPH/JEAN-PROULX",,  45.464964, -75.739390,,,0,1
2146,2146,"SAINT-JOSEPH/JEAN-PROULX",,  45.468078, -75.738062,,,0,1
2147,2147,"SAINT-JOSEPH/JEAN-PROULX",,  45.468886, -75.737866,,,0,1
2149,2149,"SAINT-JOSEPH/JEAN-PROULX",,  45.469562, -75.738286,,,0,1
2151,2151,"TERMINUS Parc-o-bus FREEMAN",,  45.473303, -75.741598,,,0,1
2153,2153,"TERMINUS FREEMAN",,  45.473368, -75.741400,,,0,1
2154,2154,"SAINT-JOSEPH/JUNEAU",,  45.475386, -75.742469,,,0,1
2155,2155,"Freeman/St-Joseph - temps d'attente",,  45.473348, -75.741377,,,0,1
2156,2156,"SAINT-JOSEPH/JUNEAU",,  45.474657, -75.742091,,,0,1
2161,2161,"FREEMAN/AUDET",,  45.472921, -75.741717,,,0,1
2162,2162,"FREEMAN/AUDET",,  45.472489, -75.746384,,,0,2
2164,2164,"FREEMAN/du TALUS",,  45.472489, -75.744990,,,0,1
2165,2165,"des HAUTES-PLAINES/FREEMAN",,  45.471372, -75.757779,,,0,2
2166,2166,"FREEMAN/du DÔME",,  45.472193, -75.748990,,,0,2
2167,2167,"FREEMAN/du DÔME",,  45.472316, -75.748658,,,0,2
2168,2168,"FREEMAN/du DÔME",,  45.471991, -75.752212,,,0,1
2169,2169,"des HAUTES-PLAINES/de la CITADELLE",,  45.471593, -75.758040,,,0,2
2170,2170,"FREEMAN/ALPHONSE-LUSIGNAN",,  45.471905, -75.751596,,,0,1
2171,2171,"FREEMAN/du PAYSAGE",,  45.471526, -75.754559,,,0,1
2172,2172,"des HAUTES-PLAINES/du PARCOURS",,  45.471843, -75.761658,,,0,1
2173,2173,"des HAUTES-PLAINES/FREEMAN",,  45.471257, -75.754364,,,0,2
2174,2174,"des HAUTES-PLAINES/du PARCOURS",,  45.471594, -75.761606,,,0,1
2175,2175,"des HAUTES-PLAINES/du TERROIR",,  45.474974, -75.773768,,,0,1
2176,2176,"des HAUTES-PLAINES/du VAL-PERCHÉ",,  45.473439, -75.764692,,,0,1
2177,2177,"des HAUTES-PLAINES/du CONTREFORT",,  45.474410, -75.767558,,,0,1
2178,2178,"des HAUTES-PLAINES/du VAL-PERCHÉ",,  45.472964, -75.764385,,,0,1
2179,2179,"des HAUTES-PLAINES/de la FONDRIÈRE",,  45.474054, -75.766939,,,0,1
2180,2180,"des HAUTES-PLAINES/de la SABLIÈRE",,  45.474835, -75.771159,,,0,1
2181,2181,"de la CITÉ-DES-JEUNES/du PLEIN-AIR",,  45.471531, -75.780645,,,0,1
2182,2182,"des HAUTES-PLAINES/de la FALAISE",,  45.474550, -75.770857,,,0,2
2184,2184,"des HAUTES-PLAINES/du TERROIR",,  45.474728, -75.773665,,,0,1
2185,2185,"de la CITÉ-DES-JEUNES/du PLEIN-AIR",,  45.469623, -75.778998,,,0,2
2188,2188,"de la CITÉ-DES-JEUNES/TALBOT",,  45.462960, -75.770306,,,0,1
2189,2189,"de la CITÉ-DES-JEUNES/du PLEIN-AIR",,  45.470212, -75.779273,,,0,1
2191,2191,"de la CITÉ-DES-JEUNES/de l'AVIRON",,  45.467040, -75.775933,,,0,1
2192,2192,"de la CITÉ-DES-JEUNES/TALBOT",,  45.462333, -75.769735,,,0,1
2193,2193,"de la CITÉ-DES-JEUNES/de l'AVIRON",,  45.467878, -75.777420,,,0,2
2194,2194,"de la CITÉ-DES-JEUNES/du MONT-BLEU",,  45.460815, -75.768026,,,0,1
2195,2195,"de la CITÉ-DES-JEUNES/de l'AVIRON",,  45.468400, -75.777672,,,0,1
2196,2196,"de l'ATMOSPHÈRE/des GRIVES",,  45.437757, -75.786266,,,0,1
2197,2197,"de la CITÉ-DES-JEUNES/de l'AVIRON",,  45.466514, -75.775527,,,0,2
2198,2198,"de l'ATMOSPHÈRE/de l'ÉTÉ",,  45.436957, -75.787416,,,0,1
2200,2200,"de la CITÉ-DES-JEUNES/PERRAS",,  45.456696, -75.764935,,,0,1
2203,2203,"de l'ATMOSPHÈRE/de l'ÉQUATEUR",,  45.440226, -75.780922,,,0,1
2204,2204,"de la CITÉ-DES-JEUNES/PERRAS",,  45.456076, -75.763191,,,0,1
2205,2205,"de la CITÉ-DES-JEUNES/PERRAS",,  45.456055, -75.762817,,,0,1
2206,2206,"de la CITÉ-DES-JEUNES/des ÉGLANTIERS",,  45.454317, -75.759765,,,0,1
2208,2208,"de la CITÉ-DES-JEUNES/THÉRIEN",,  45.454212, -75.759265,,,0,1
2210,2210,"CENTRE ASTICOU",,  45.450424, -75.761759,,,0,1
2212,2212,"de la CITÉ-DES-JEUNES",,  45.451253, -75.757653,,,0,1
2213,2213,"de l'ATMOSPHÈRE/de la GRAVITÉ",,  45.440170, -75.779737,,,0,1
2214,2214,"de la CITÉ-DES-JEUNES/BÉDARD",,  45.450357, -75.756963,,,0,1
2215,2215,"de la CITÉ-DES-JEUNES/SAINT-RAYMOND",,  45.446705, -75.751134,,,0,1
2216,2216,"de la CITÉ-DES-JEUNES/BÉDARD",,  45.448488, -75.753830,,,0,1
2217,2217,"de l'ATMOSPHÈRE/de L'ÉCLIPSE",,  45.440056, -75.776286,,,0,1
2218,2218,"de la CITÉ-DES-JEUNES/BÉDARD",,  45.448306, -75.753994,,,0,1
2219,2219,"de l'ATMOSPHÈRE/de l'ÉCLIPSE",,  45.439876, -75.776245,,,0,2
2220,2220,"de l'ATMOSPHÈRE/de la SAPINIÈRE",,  45.439439, -75.774423,,,0,1
2221,2221,"de la CITÉ-DES-JEUNES/PERRAS",,  45.457052, -75.765417,,,0,1
2223,2223,"de la CITÉ-DES-JEUNES/RIEL",,  45.464707, -75.772974,,,0,2
2225,2225,"de l'ATMOSPHÈRE/de l'ASTROLABE",,  45.437735, -75.773428,,,0,2
2226,2226,"RIEL/du RAVIN-BLEU",,  45.465563, -75.771352,,,0,1
2227,2227,"de la CITÉ-DES-JEUNES/RIEL",,  45.465281, -75.773577,,,0,1
2228,2228,"RIEL/du RAVIN-BLEU",,  45.465294, -75.771234,,,0,1
2230,2230,"d'EUROPE/PINK",,  45.442506, -75.795342,,,0,2
2231,2231,"de l'ATMOSPHÈRE/de la SAPINIÈRE",,  45.439339, -75.774505,,,0,2
2232,2232,"d'ANDROMÈDE/d'EUROPE",,  45.442186, -75.795914,,,0,1
2233,2233,"du PLATEAU/de l'ATMOSPHÈRE",,  45.436311, -75.771956,,,0,1
2234,2234,"RIEL/TALBOT",,  45.464492, -75.768426,,,0,1
2235,2235,"du PLATEAU/de l'ATMOSPHÈRE",,  45.436442, -75.772399,,,0,1
2236,2236,"RIEL/TALBOT",,  45.464233, -75.768303,,,0,1
2237,2237,"du PLATEAU/des CÈDRES",,  45.436695, -75.770255,,,0,1
2238,2238,"RIEL/MARCOUX",,  45.463984, -75.765165,,,0,2
2239,2239,"du PLATEAU/des CÈDRES",,  45.436903, -75.770445,,,0,1
2240,2240,"RIEL/MARCOUX",,  45.463810, -75.764383,,,0,1
2242,2242,"RIEL/de SAINT-BRIEUC",,  45.464202, -75.761652,,,0,1
2243,2243,"d'EUROPE/d'ANDROMÈDE",,  45.441825, -75.795424,,,0,2
2244,2244,"RIEL/ALIE",,  45.464075, -75.760546,,,0,1
2245,2245,"d'EUROPE/de GANYMÈDE",,  45.440022, -75.795111,,,0,2
2246,2246,"RIEL/de l'ESCALIER",,  45.463236, -75.755894,,,0,1
2247,2247,"d'EUROPE/de GANYMÈDE",,  45.439202, -75.795850,,,0,2
2248,2248,"RIEL/de l'ESCALIER",,  45.463377, -75.756306,,,0,1
2249,2249,"de l'ATMOSPHÈRE/du PRINTEMPS",,  45.436733, -75.788212,,,0,1
2251,2251,"de l'ATMOSPHÈRE/de la NÉBULEUSE",,  45.435705, -75.791279,,,0,1
2253,2253,"de l'ATMOSPHÈRE/de L'ÉTÉ",,  45.435633, -75.790497,,,0,1
2254,2254,"RIEL/du MONT-BLEU",,  45.461152, -75.754177,,,0,1
2255,2255,"de l'ATMOSPHÈRE/du TROPIQUE",,  45.435051, -75.794453,,,0,1
2256,2256,"RIEL/du MONT-BLEU",,  45.461175, -75.754511,,,0,1
2257,2257,"de l'ATMOSPHÈRE/du TROPIQUE",,  45.435269, -75.793738,,,0,2
2258,2258,"RIEL/CHOUINARD",,  45.459119, -75.752386,,,0,1
2260,2260,"RIEL/CHOUINARD",,  45.458490, -75.752109,,,0,1
2262,2262,"RIEL/CHOUINARD",,  45.457779, -75.750820,,,0,1
2264,2264,"RIEL/BÉDARD",,  45.457240, -75.750609,,,0,1
2266,2266,"RIEL/BÉDARD",,  45.456173, -75.748548,,,0,1
2268,2268,"RIEL/ISABELLE",,  45.456010, -75.748751,,,0,1
2269,2269,"de l'ATMOSPHÈRE/des GRIVES",,  45.438110, -75.785298,,,0,1
2270,2270,"RIEL/ISABELLE",,  45.455375, -75.746785,,,0,1
2271,2271,"du PLATEAU/SAINT-RAYMOND",,  45.436247, -75.767130,,,0,1
2272,2272,"RIEL/ISABELLE",,  45.455017, -75.746435,,,0,1
2273,2273,"du PLATEAU/SAINT-RAYMOND",,  45.435885, -75.766486,,,0,1
2274,2274,"ISABELLE/SAINT-ONGE",,  45.453185, -75.745733,,,0,1
2275,2275,"des GRIVES/du STRATUS",,  45.436358, -75.782679,,,0,1
2276,2276,"ISABELLE/SAINT-ONGE",,  45.452863, -75.745461,,,0,1
2278,2278,"ISABELLE/de la GUADELOUPE",,  45.451064, -75.745219,,,0,1
2280,2280,"ISABELLE/de la GUADELOUPE",,  45.449985, -75.745263,,,0,1
2281,2281,"de l'ATMOSPHÈRE/de l'ASTROLABE",,  45.437736, -75.773224,,,0,1
2282,2282,"ISABELLE/FRÉCHETTE",,  45.447467, -75.744724,,,0,2
2283,2283,"des GRIVES/de l'HORIZON",,  45.436762, -75.783798,,,0,1
2284,2284,"ISABELLE/FRÉCHETTE",,  45.447646, -75.744970,,,0,1
2285,2285,"SAINT-RAYMOND/LIONEL-ÉMOND",,  45.446234, -75.749816,,,0,1
2286,2286,"SAINT-RAYMOND/ISABELLE",,  45.446451, -75.746945,,,0,1
2287,2287,"SAINT-RAYMOND/LIONEL-ÉMOND",,  45.446588, -75.749168,,,0,1
2288,2288,"SAINT-RAYMOND/CORBEIL",,  45.446814, -75.745458,,,0,1
2289,2289,"de l'ATMOSPHÈRE/du FIRMAMENT",,  45.439375, -75.783718,,,0,1
2290,2290,"CORBEIL/SAINT-RAYMOND",,  45.447940, -75.749516,,,0,1
2291,2291,"de l'ATMOSPHÈRE/du FIRMAMENT",,  45.439613, -75.782981,,,0,1
2292,2292,"CORBEIL/BRIGHAM",,  45.447711, -75.748769,,,0,1
2294,2294,"CORBEIL/FRÉCHETTE",,  45.449409, -75.750645,,,0,1
2296,2296,"CORBEIL/FRÉCHETTE",,  45.449470, -75.750876,,,0,1
2299,2299,"de LUCERNE/RIVERMEAD",,  45.391032, -75.795166,,,0,2
2301,2301,"CORBEIL/DOUCET",,  45.451781, -75.750725,,,0,1
2302,2302,"CORBEIL/BRADY",,  45.452784, -75.750613,,,0,2
2303,2303,"THÉRIEN/BÉDARD",,  45.454452, -75.752488,,,0,1
2304,2304,"THÉRIEN/CORBEIL",,  45.454354, -75.751427,,,0,2
2308,2308,"THÉRIEN/FROMENT",,  45.454247, -75.754048,,,0,2
2312,2312,"THÉRIEN/d'ORSONNENS",,  45.454017, -75.757562,,,0,2
2314,2314,"THÉRIEN/d'ORSONNENS",,  45.454197, -75.756740,,,0,1
2316,2316,"du MONT-BLEU/de la CITÉ-DES-JEUNES",,  45.460834, -75.766555,,,0,1
2318,2318,"du MONT-BLEU/de la CITÉ-DES-JEUNES",,  45.460644, -75.766630,,,0,1
2320,2320,"du MONT-BLEU/MARCOUX",,  45.461022, -75.764013,,,0,1
2322,2322,"du MONT-BLEU/MARCOUX",,  45.460842, -75.763908,,,0,1
2324,2324,"du MONT-BLEU/des GROSEILLIERS",,  45.460974, -75.761658,,,0,2
2326,2326,"du MONT-BLEU/des MAGNOLIAS",,  45.461224, -75.760664,,,0,1
2328,2328,"du MONT-BLEU/des MAGNOLIAS",,  45.461140, -75.759806,,,0,1
2330,2330,"du MONT-BLEU/JOLICOEUR",,  45.461576, -75.756211,,,0,1
2334,2334,"du MONT-BLEU/RIEL",,  45.461719, -75.753904,,,0,1
2336,2336,"du MONT-BLEU/RIEL",,  45.461397, -75.755265,,,0,1
2338,2338,"du MONT-BLEU/PÈRE-BÉLAND",,  45.461825, -75.751424,,,0,1
2340,2340,"du MONT-BLEU/PÈRE-BÉLAND",,  45.461613, -75.751655,,,0,2
2341,2341,"SAINT-JOSEPH/du MONT-BLEU",,  45.461599, -75.740537,,,0,1
2342,2342,"du MONT-BLEU/FORTIN",,  45.462080, -75.747932,,,0,1
2343,2343,"du MONT-BLEU/ARDOUIN",,  45.462318, -75.744869,,,0,2
2344,2344,"du MONT-BLEU/ARDOUIN",,  45.461949, -75.746249,,,0,1
2346,2346,"LUCIEN-BRAULT/GEORGES-BILODEAU",,  45.462600, -75.749091,,,0,2
2347,2347,"CHARLES-ALBANEL/LE BRETON",,  45.462907, -75.751221,,,0,2
2348,2348,"CHARLES-ALBANEL/LUCIEN-BRAULT",,  45.463086, -75.751364,,,0,2
2349,2349,"CHARLES-ALBANEL/JUMONVILLE",,  45.464379, -75.750960,,,0,2
2350,2350,"CHARLES-ALBANEL/JUMONVILLE",,  45.464618, -75.751116,,,0,2
2351,2351,"DANIEL-JOHNSON/JUMONVILLE",,  45.464939, -75.748703,,,0,1
2352,2352,"GEORGES-BILODEAU/LUCIEN-BRAULT",,  45.462565, -75.748390,,,0,2
2357,2357,"DANIEL-JOHNSON/JUMONVILLE",,  45.464684, -75.748344,,,0,2
2358,2358,"DANIEL-JOHNSON/LUCIEN-BRAULT",,  45.463212, -75.747604,,,0,1
2359,2359,"DANIEL-JOHNSON/LUCIEN-BRAULT",,  45.462568, -75.746961,,,0,1
2364,2364,"PHILIAS-FORTIN/du MONT-BLEU",,  45.461575, -75.748351,,,0,1
2366,2366,"PHILIAS-FORTIN/du MONT-BLEU",,  45.461394, -75.748528,,,0,1
2368,2368,"JOLICOEUR/ISABELLE",,  45.459947, -75.746669,,,0,1
2370,2370,"JOLICOEUR/CHOUINARD",,  45.460037, -75.746516,,,0,1
2376,2376,"ISABELLE/WILFRID-LATOUR",,  45.459983, -75.744122,,,0,1
2378,2378,"ISABELLE/WILFRID-LATOUR",,  45.460160, -75.744585,,,0,1
2380,2380,"ISABELLE/RICHARD",,  45.459931, -75.742369,,,0,1
2382,2382,"ISABELLE/RICHARD",,  45.459726, -75.742098,,,0,1
2383,2383,"MUTCHMORE/SAINT-JOSEPH",,  45.459731, -75.741253,,,0,1
2384,2384,"MUTCHMORE/MEUNIER",,  45.458301, -75.739789,,,0,1
2385,2385,"MUTCHMORE/SAINT-JOSEPH",,  45.459365, -75.740865,,,0,1
2386,2386,"MUTCHMORE/MEUNIER",,  45.458209, -75.739980,,,0,1
2388,2388,"MUTCHMORE/LESAGE",,  45.455072, -75.738046,,,0,1
2390,2390,"MUTCHMORE/LESAGE",,  45.454622, -75.737976,,,0,1
2392,2392,"MUTCHMORE/LOUIS-HÉBERT",,  45.453277, -75.737127,,,0,1
2394,2394,"MUTCHMORE/LOUIS-HÉBERT",,  45.453010, -75.736715,,,0,1
2396,2396,"MUTCHMORE/ABIGAIL",,  45.451938, -75.735473,,,0,1
2398,2398,"MUTCHMORE/ABIGAIL",,  45.451900, -75.735690,,,0,1
2400,2400,"MUTCHMORE/RENÉ-MARENGÈRE",,  45.450641, -75.734337,,,0,2
2404,2404,"SAINT-RAYMOND/ROY",,  45.447449, -75.736374,,,0,1
2406,2406,"SAINT-RAYMOND/JOFFRE",,  45.447246, -75.737266,,,0,1
2408,2408,"SAINT-RAYMOND/LÉVESQUE",,  45.447089, -75.739272,,,0,1
2410,2410,"SAINT-RAYMOND/LÉVESQUE",,  45.447210, -75.739913,,,0,1
2412,2412,"SAINT-RAYMOND/LAROSE",,  45.447035, -75.742008,,,0,1
2414,2414,"SAINT-RAYMOND/MONTPETIT",,  45.446850, -75.742709,,,0,1
2418,2418,"LIONEL-ÉMOND/SAINT-RAYMOND",,  45.445318, -75.747506,,,0,2
2420,2420,"LIONEL-ÉMOND/SAINT-RAYMOND",,  45.445375, -75.747816,,,0,2
2423,2423,"LIONEL-ÉMOND/GAMELIN",,  45.443668, -75.747309,,,0,1
2424,2424,"LIONEL-ÉMOND/GAMELIN",,  45.443490, -75.747306,,,0,1
2427,2427,"LIONEL-ÉMOND/GAMELIN",,  45.443347, -75.747606,,,0,2
2430,2430,"GAMELIN/MOUSSETTE",,  45.443247, -75.743096,,,0,2
2434,2434,"GAMELIN/MOUSSETTE",,  45.443355, -75.743370,,,0,2
2436,2436,"GAMELIN/RICHELIEU",,  45.443537, -75.739993,,,0,2
2438,2438,"GAMELIN/RICHELIEU",,  45.443507, -75.738437,,,0,2
2440,2440,"GAMELIN/JOFFRE",,  45.443643, -75.737577,,,0,2
2442,2442,"GAMELIN/BERRI",,  45.443614, -75.735500,,,0,2
2446,2446,"GAMELIN/SAINT-JOSEPH",,  45.443848, -75.733667,,,0,1
2448,2448,"GAMELIN/SAINT-JOSEPH",,  45.443671, -75.733243,,,0,2
2450,2450,"LABELLE/BOURQUE",,  45.442543, -75.741334,,,0,1
2452,2452,"LABELLE/SAINTE-MARIE",,  45.441592, -75.741413,,,0,1
2456,2456,"LABELLE/JEANNE-D'ARC",,  45.439648, -75.741282,,,0,2
2460,2460,"LIONEL-ÉMOND/CARON",,  45.441869, -75.747349,,,0,2
2462,2462,"LIONEL-ÉMOND/CARON",,  45.441601, -75.747141,,,0,2
2464,2464,"MONTCLAIR/LIONEL-ÉMOND",,  45.439983, -75.746685,,,0,2
2466,2466,"MONTCLAIR/LIONEL-ÉMOND",,  45.439895, -75.746479,,,0,2
2468,2468,"MONTCLAIR/MOUSSETTE",,  45.440035, -75.744183,,,0,2
2470,2470,"MONTCLAIR/MOUSSETTE",,  45.439963, -75.742929,,,0,2
2472,2472,"MONTCLAIR/LABELLE",,  45.440016, -75.740318,,,0,2
2474,2474,"MONTCLAIR/LABELLE",,  45.440135, -75.740377,,,0,2
2476,2476,"MONTCLAIR/FORTIER",,  45.440227, -75.736958,,,0,1
2478,2478,"MONTCLAIR/SAINT-JOSEPH",,  45.440250, -75.733378,,,0,2
2480,2480,"MONTCLAIR/SAINT-JOSEPH",,  45.440430, -75.733342,,,0,2
2481,2481,"MONTCLAIR/FORTIER",,  45.440138, -75.736713,,,0,2
2482,2482,"LABELLE/FONTAINE",,  45.440397, -75.741163,,,0,1
2484,2484,"LABELLE/NICOLET",,  45.438580, -75.741091,,,0,1
2486,2486,"LABELLE/SHERBROOKE",,  45.438398, -75.741294,,,0,1
2488,2488,"LABELLE/DUMAS",,  45.437050, -75.741046,,,0,1
2494,2494,"LABELLE/DUROCHER",,  45.435699, -75.741143,,,0,1
2496,2496,"LABELLE/BRODEUR",,  45.436238, -75.741329,,,0,2
2498,2498,"LABELLE/WìGWÀS",,  45.434131, -75.741304,,,0,2
2500,2500,"LABELLE/WìGWÀS",,  45.434082, -75.741501,,,0,2
2502,2502,"des ALLUMETTIÈRES/LABELLE",,  45.432193, -75.740484,,,0,1
2506,2506,"des ALLUMETTIÈRES/LABELLE",,  45.432461, -75.740743,,,0,1
2508,2508,"des ALLUMETTIÈRES/DEMONTIGNY",,  45.432108, -75.736971,,,0,1
2510,2510,"des ALLUMETTIÈRES/DEMONTIGNY",,  45.432390, -75.737069,,,0,1
2511,2511,"de la CARRIÈRE/d'EDMONTON",,  45.455296, -75.731181,,,0,1
2512,2512,"des ALLUMETTIÈRES/SAINT-JOSEPH",,  45.432052, -75.734307,,,0,1
2513,2513,"de la CARRIÈRE/ADRIEN-ROBERT",,  45.459736, -75.734205,,,0,2
2514,2514,"des ALLUMETTIÈRES/SAINT-JOSEPH",,  45.432319, -75.734822,,,0,1
2515,2515,"de la CARRIÈRE/d'EDMONTON",,  45.452237, -75.729505,,,0,2
2517,2517,"JEAN-PROULX/NOËL",,  45.466849, -75.736584,,,0,1
2518,2518,"MONTCLAIR/DUCHARME",,  45.440304, -75.730647,,,0,1
2519,2519,"JEAN-PROULX/NOËL",,  45.465567, -75.733821,,,0,1
2520,2520,"MONTCLAIR/DUCHARME",,  45.440533, -75.731323,,,0,1
2522,2522,"JEAN-PROULX/BUTEAU",,  45.463832, -75.733517,,,0,1
2523,2523,"MONTCLAIR/de la CARRIÈRE",,  45.440369, -75.728712,,,0,1
2524,2524,"d'EDMONTON/ADRIEN-ROBERT",,  45.451321, -75.733432,,,0,2
2525,2525,"de la CARRIÈRE/du CASINO",,  45.450359, -75.728982,,,0,2
2526,2526,"ADRIEN-ROBERT/d'EDMONTON",,  45.454015, -75.734336,,,0,2
2527,2527,"d'EDMONTON/de la CARRIÈRE",,  45.451529, -75.730403,,,0,2
2528,2528,"ADRIEN-ROBERT/d'EDMONTON",,  45.457124, -75.734589,,,0,2
2529,2529,"JEAN-PROULX/DEVEAULT",,  45.462207, -75.734276,,,0,1
2530,2530,"ADRIEN-ROBERT/d'EDMONTON",,  45.458870, -75.735307,,,0,2
2531,2531,"ADRIEN-ROBERT/d'EDMONTON",,  45.458779, -75.735408,,,0,2
2532,2532,"JEAN-PROULX/DEVEAULT",,  45.462316, -75.734060,,,0,2
2533,2533,"ADRIEN-ROBERT/d'EDMONTON",,  45.456894, -75.734617,,,0,2
2534,2534,"JEAN-PROULX/BUTEAU",,  45.464140, -75.733214,,,0,2
2535,2535,"ADRIEN-ROBERT/d'EDMONTON",,  45.454105, -75.734401,,,0,2
2536,2536,"JEAN-PROULX/NOËL",,  45.466034, -75.734070,,,0,2
2537,2537,"d'EDMONTON/ADRIEN-ROBERT",,  45.451212, -75.733507,,,0,2
2538,2538,"JEAN-PROULX/NOËL",,  45.466918, -75.736261,,,0,1
2539,2539,"d'EDMONTON/de la CARRIÈRE",,  45.451404, -75.730338,,,0,2
2540,2540,"SAINT-RAYMOND/des TREMBLES",,  45.425215, -75.761331,,,0,2
2541,2541,"SAINT-RAYMOND/MARCEL-CHAPUT",,  45.420677, -75.761165,,,0,2
2542,2542,"SAINT-RAYMOND/des TREMBLES",,  45.426274, -75.761855,,,0,1
2543,2543,"SAINT-RAYMOND/des CAPUCINES",,  45.420331, -75.760754,,,0,1
2544,2544,"ALEXANDRE-TACHÉ/MILLAR (scolaire)",,  45.423860, -75.728289,,,0,2
2545,2545,"SAINT-RAYMOND/des JONQUILLES",,  45.422424, -75.761383,,,0,1
2546,2546,"ALEXANDRE-TACHÉ/MILLAR",,  45.423851, -75.728314,,,0,2
2547,2547,"SAINT-RAYMOND/des JONQUILLES",,  45.423115, -75.761072,,,0,1
2548,2548,"ALEXANDRE-TACHÉ/MILLAR",,  45.423998, -75.728499,,,0,1
2549,2549,"de la CARRIÈRE/du CASINO",,  45.450537, -75.729278,,,0,1
2551,2551,"de la CARRIÈRE/ADRIEN-ROBERT",,  45.458984, -75.734007,,,0,1
2552,2552,"de la CARRIÈRE/ADRIEN-ROBERT",,  45.457084, -75.732767,,,0,2
2553,2553,"de la CARRIÈRE/d'EDMONTON",,  45.452144, -75.729768,,,0,1
2554,2554,"de la CARRIÈRE/d'EDMONTON",,  45.454199, -75.730254,,,0,1
2555,2555,"de la CARRIÈRE/d'EDMONTON",,  45.456701, -75.732932,,,0,1
2560,2560,"MONTCALM/WRIGHT",,  45.426502, -75.723970,,,0,1
2562,2562,"MONTCALM/WRIGHT",,  45.426132, -75.724029,,,0,1
2563,2563,"WELLINGTON/ST-RÉDEMPTEUR",,  45.425916, -75.722633,,,0,1
2564,2564,"MONTCALM/GAGNON",,  45.428410, -75.725401,,,0,1
2568,2568,"MONTCALM/GAGNON",,  45.428358, -75.725119,,,0,1
2573,2573,"Station MONTCALM #3",,  45.430374, -75.729300,,,0,1
2574,2574,"MONTCALM/HANSON",,  45.430096, -75.728920,,,0,1
2576,2576,"MONTCALM/LOIS",,  45.430909, -75.731508,,,0,1
2578,2578,"MONTCALM/LOIS",,  45.431416, -75.732547,,,0,1
2582,2582,"de la CARRIÈRE/MONTCLAIR",,  45.441614, -75.728345,,,0,1
2583,2583,"455 de la CARRIÈRE",,  45.443072, -75.728312,,,0,1
2584,2584,"STATION CASINO",,  45.445504, -75.728101,,,0,1
2585,2585,"de la CARRIÈRE/MONTCLAIR",,  45.441554, -75.728790,,,0,1
2586,2586,"STATION CASINO",,  45.447222, -75.728087,,,0,2
2588,2588,"de la CARRIÈRE/des GALERIES",,  45.444165, -75.727815,,,0,1
2596,2596,"MAISONNEUVE/PAPINEAU",,  45.430147, -75.712954,,,0,1
2597,2597,"MAISONNEUVE/des ALLUMETTIÈRES",,  45.431824, -75.713110,,,0,1
2598,2598,"MAISONNEUVE/PAPINEAU",,  45.429155, -75.713564,,,0,1
2602,2602,"TERRASSES de la CHAUDIÈRE",,  45.425022, -75.720719,,,0,1
2604,2604,"TERRASSES de la CHAUDIÈRE",,  45.424906, -75.720064,,,0,1
2606,2606,"du PORTAGE/LAVAL",,  45.425391, -75.717039,,,0,1
2607,2607,"EDDY/WELLINGTON",,  45.425838, -75.719775,,,0,1
2608,2608,"du PORTAGE/LAVAL",,  45.425416, -75.717372,,,0,1
2610,2610,"du PORTAGE/AUBRY",,  45.427119, -75.714595,,,0,1
2612,2612,"de la CITÉ-DES-JEUNES/de la GALÈNE",,  45.475422, -75.786306,,,0,1
2613,2613,"LAVAL/LAURIER",,  45.425427, -75.716436,,,0,2
2614,2614,"de l'HÔTEL-de-VILLE/LAURIER",,  45.427239, -75.711542,,,0,1
2615,2615,"LAVAL/LAURIER",,  45.425199, -75.716624,,,0,1
2616,2616,"du PORTAGE/de l'HÔTEL-de-VILLE",,  45.427139, -75.714212,,,0,1
2618,2618,"MUSÉE DE L'HISTOIRE",,  45.431330, -75.709717,,,0,1
2620,2620,"LAURIER/de l'HÔTEL-de-VILLE",,  45.428244, -75.710263,,,0,1
2621,2621,"LAURIER/ÉLISABETH-BRUYÈRE",,  45.431396, -75.709932,,,0,1
2623,2623,"LAURIER/VICTORIA",,  45.428693, -75.710422,,,0,1
2625,2625,"EDDY/du PORTAGE",,  45.425670, -75.719962,,,0,1
2626,2626,"EDDY/WRIGHT",,  45.427202, -75.719927,,,0,1
2628,2628,"EDDY/FRONTENAC",,  45.428633, -75.720035,,,0,1
2630,2630,"EDDY/PAPINEAU",,  45.430432, -75.720249,,,0,1
2632,2632,"SAINT-RÉDEMPTEUR/HÔTEL-DE-VILLE",,  45.427363, -75.721604,,,0,1
2634,2634,"SAINT-RÉDEMPTEUR/GAGNON",,  45.428982, -75.721701,,,0,2
2636,2636,"SAINT-RÉDEMPTEUR/GARNEAU",,  45.431470, -75.721936,,,0,2
2638,2638,"SAINT-RÉDEMPTEUR/SAINT-ÉTIENNE",,  45.433797, -75.721877,,,0,2
2640,2640,"SAINT-RÉDEMPTEUR/MARIE-LE FRANC",,  45.433954, -75.722070,,,0,1
2642,2642,"SAINT-RÉDEMPTEUR/SACRÉ-COEUR",,  45.436269, -75.722459,,,0,1
2644,2644,"SAINT-RÉDEMPTEUR/SACRÉ-CŒUR",,  45.435731, -75.722004,,,0,1
2645,2645,"de la GALÈNE/du QUARTZ",,  45.477781, -75.787973,,,0,2
2646,2646,"SAINT-RÉDEMPTEUR/ADÉLARD-BEAUCHAMP",,  45.438517, -75.722820,,,0,1
2648,2648,"SAINT-RÉDEMPTEUR/ADÉLARD-BEAUCHAMP",,  45.438555, -75.722449,,,0,1
2649,2649,"de la GALÈNE/ÉLIZA-SIMON",,  45.479285, -75.791705,,,0,2
2650,2650,"SACRÉ-COEUR/SAINT-HENRI",,  45.436910, -75.720626,,,0,1
2651,2651,"de la GALÈNE/du MICA",,  45.477052, -75.785109,,,0,2
2652,2652,"SACRÉ-COEUR/SAINT-HENRI",,  45.436645, -75.719817,,,0,1
2653,2653,"de la GALÈNE/des MINEURS",,  45.474569, -75.783796,,,0,2
2654,2654,"SACRÉ-COEUR/MANCE",,  45.437112, -75.717215,,,0,1
2656,2656,"SACRÉ-COEUR/des AÇORES",,  45.436937, -75.716343,,,0,1
2657,2657,"SACRÉ-COEUR/KENT",,  45.437397, -75.713578,,,0,1
2658,2658,"SACRÉ-COEUR/des AÇORES",,  45.437256, -75.715695,,,0,1
2660,2660,"SACRÉ-COEUR/KENT",,  45.437134, -75.713686,,,0,1
2662,2662,"SACRÉ-COEUR/NOTRE-DAME-de-l'ÎLE",,  45.436358, -75.708767,,,0,1
2663,2663,"Départ école secondaire de l'île",,  45.436535, -75.723012,,,0,2
2664,2664,"arrivée école secondaire de l'île",,  45.436534, -75.723140,,,0,2
2668,2668,"SACRÉ-COEUR/LAURIER",,  45.437185, -75.709239,,,0,1
2672,2672,"SACRÉ-COEUR/SAINT-RÉDEMPTEUR",,  45.436543, -75.721797,,,0,1
2674,2674,"LAURIER/VERDUN",,  45.434884, -75.709005,,,0,1
2675,2675,"LAURIER/SACRÉ-COEUR",,  45.437588, -75.708556,,,0,1
2676,2676,"LAURIER/VERDUN",,  45.435272, -75.709162,,,0,1
2677,2677,"MARIE-BURGER/de la GALÈNE",,  45.479365, -75.793164,,,0,2
2682,2682,"LAURIER/des ALLUMETTIÈRES",,  45.433055, -75.709394,,,0,1
2683,2683,"DUSSAULT/NOTRE-DAME-de-l'ÎLE",,  45.440582, -75.709165,,,0,2
2684,2684,"CENTRE LA PIÉTÀ",,  45.439436, -75.708152,,,0,1
2690,2690,"des ALLUMETTIÈRES/CHAMPLAIN",,  45.432194, -75.712026,,,0,1
2691,2691,"des ALLUMETTIÈRES/LAURIER",,  45.432335, -75.710481,,,0,1
2692,2692,"MAISONNEUVE/des ALLUMETTIÈRES",,  45.433001, -75.712496,,,0,1
2693,2693,"MAISONNEUVE/VERDUN",,  45.434454, -75.712692,,,0,1
2694,2694,"des ALLUMETTIÈRES/KENT",,  45.432441, -75.715608,,,0,1
2695,2695,"MAISONNEUVE/VERDUN",,  45.434404, -75.712294,,,0,1
2701,2701,"SAINT-RAYMOND/du PLATEAU",,  45.437378, -75.765986,,,0,2
2702,2702,"des ALLUMETTIÈRES/SAINT-RÉDEMPTEUR",,  45.432215, -75.721486,,,0,1
2704,2704,"des ALLUMETTIÈRES/SAINT-RÉDEMPTEUR",,  45.432496, -75.721273,,,0,1
2706,2706,"des ALLUMETTIÈRES/MORIN",,  45.432173, -75.725473,,,0,1
2707,2707,"de la CITÉ-DES-JEUNES/du QUARTZ",,  45.477096, -75.789903,,,0,1
2708,2708,"PINK/du BLIZZARD",,  45.443703, -75.791281,,,0,2
2709,2709,"PINK/du BLIZZARD",,  45.443554, -75.791166,,,0,2
2711,2711,"PLACE d'ACCUEIL",,  45.426243, -75.713600,,,0,1
2712,2712,"de la CITÉ-DES-JEUNES/de la GALÈNE",,  45.475395, -75.786321,,,0,1
2713,2713,"de la CITÉ-DES-JEUNES/du QUARTZ",,  45.477096, -75.789890,,,0,1
2714,2714,"FOURNIER/JOANISSE",,  45.445419, -75.713100,,,0,1
2715,2715,"FOURNIER/LAMBERT",,  45.443976, -75.713427,,,0,1
2716,2716,"FOURNIER/BÉRIAULT",,  45.446593, -75.712411,,,0,1
2717,2717,"FOURNIER/HENRI-GAUTHIER",,  45.444547, -75.712936,,,0,2
2718,2718,"FOURNIER/chemin LAC LEAMY",,  45.454820, -75.703665,,,0,2
2724,2724,"PLACE d'ACCUEIL",,  45.426096, -75.714109,,,0,1
2726,2726,"FOURNIER/du LAC LEAMY",,  45.454923, -75.703052,,,0,2
2728,2728,"des TREMBLES/SAINT-RAYMOND",,  45.426572, -75.762503,,,0,1
2729,2729,"des TREMBLES/BOYER",,  45.426303, -75.767035,,,0,1
2730,2730,"des TREMBLES/de la SITELLE",,  45.424986, -75.768563,,,0,2
2735,2735,"des TREMBLES/BOYER",,  45.426173, -75.766137,,,0,1
2736,2736,"des TREMBLES/de la SITELLE",,  45.424717, -75.768418,,,0,2
2741,2741,"SAINT-RAYMOND/LOUISE-CAMPAGNA",,  45.430340, -75.762064,,,0,2
2742,2742,"SAINT-RAYMOND/LOUISE-CAMPAGNA",,  45.429798, -75.762389,,,0,1
2743,2743,"SAINT-RAYMOND/des JONQUILLES",,  45.426924, -75.761507,,,0,1
2746,2746,"de la GALÈNE/du QUARTZ",,  45.477826, -75.788012,,,0,2
2749,2749,"de la GALÈNE/ÉLIZA-SIMON",,  45.479285, -75.791756,,,0,2
2750,2750,"de la GALÈNE/du MICA",,  45.477081, -75.785085,,,0,2
2751,2751,"LOUISE-CAMPAGNA/SAINT-RAYMOND",,  45.429599, -75.765289,,,0,1
2753,2753,"LOUISE-CAMPAGNA/des MIGRATEURS",,  45.429094, -75.766291,,,0,1
2754,2754,"de la GALÈNE/des MINEURS",,  45.474569, -75.783796,,,0,2
2755,2755,"LOUISE-CAMPAGNA/des MIGRATEURS",,  45.429126, -75.768619,,,0,1
2757,2757,"LOUISE-CAMPAGNA/du BRUANT",,  45.428900, -75.769258,,,0,1
2759,2759,"des TREMBLES/LOUISE-CAMPAGNA",,  45.428585, -75.773537,,,0,2
2760,2760,"de la CITÉ-DES-JEUNES/des HAUTES-PLAINES",,  45.472456, -75.781451,,,0,1
2761,2761,"LOUISE-CAMPAGNA/du MARTIN-PÊCHEUR",,  45.428727, -75.772792,,,0,1
2762,2762,"des HAUTES-PLAINES/de la CITÉ-DES-JEUNES",,  45.472244, -75.780110,,,0,1
2763,2763,"des TREMBLES/des TOURTERELLES",,  45.427196, -75.774524,,,0,2
2764,2764,"des HAUTES-PLAINES/de la CITÉ-DES-JEUNES",,  45.472979, -75.779386,,,0,1
2765,2765,"des TREMBLES/des TOURTERELLES",,  45.426871, -75.774635,,,0,1
2766,2766,"SAINT-RAYMOND/du PLATEAU",,  45.437637, -75.766625,,,0,2
2767,2767,"PINK/de la SAPINIÈRE",,  45.445366, -75.773828,,,0,1
2769,2769,"PINK/de la SAPINIÈRE",,  45.445175, -75.772788,,,0,1
2771,2771,"des TREMBLES/des PARULINES",,  45.424781, -75.773911,,,0,2
2772,2772,"des TREMBLES/des PERDRIX",,  45.424859, -75.773742,,,0,1
2773,2773,"des TREMBLES/des PARULINES",,  45.423756, -75.770796,,,0,2
2774,2774,"des TREMBLES/de L'ÉPERVIER",,  45.423873, -75.770795,,,0,2
2775,2775,"LOUISE-CAMPAGNA/SAINT-RAYMOND",,  45.430063, -75.763122,,,0,1
2777,2777,"MARIE-BURGER/de la GALÈNE",,  45.479365, -75.793164,,,0,2
2778,2778,"PINK/des GRIVES",,  45.444083, -75.786427,,,0,1
2779,2779,"PINK/des GRIVES",,  45.443989, -75.784599,,,0,1
2780,2780,"PINK/de la GRAVITÉ",,  45.444639, -75.780606,,,0,1
2781,2781,"PINK/de la GRAVITÉ",,  45.444674, -75.778957,,,0,1
2782,2782,"d'EUROPE/de LONDRES",,  45.438114, -75.796857,,,0,1
2783,2783,"d'EUROPE/de LONDRES",,  45.438043, -75.796689,,,0,2
2784,2784,"PLATEAU/EUROPE",,  45.435582, -75.798534,,,0,1
2785,2785,"PLATEAU/EUROPE",,  45.435415, -75.798790,,,0,1
2786,2786,"d'EUROPE/de LONDRES",,  45.436332, -75.799222,,,0,2
2787,2787,"d'EUROPE/de LONDRES",,  45.436820, -75.799165,,,0,2
2788,2788,"du PLATEAU/de BRUXELLES",,  45.433542, -75.791576,,,0,1
2789,2789,"du PLATEAU/de BRUXELLES",,  45.433287, -75.792033,,,0,1
2790,2790,"du PLATEAU/de l'AUTOMNE",,  45.433493, -75.788303,,,0,1
2791,2791,"du PLATEAU/de l'AUTOMNE",,  45.433312, -75.788402,,,0,1
2792,2792,"du PLATEAU/du CUMULUS",,  45.433841, -75.784113,,,0,1
2793,2793,"du PLATEAU/du CUMULUS",,  45.433720, -75.783817,,,0,1
2794,2794,"du PLATEAU/de l'ATMOSPHÈRE",,  45.434402, -75.796215,,,0,1
2795,2795,"DU PLATEAU/de L'ATMOSPHÈRE",,  45.434448, -75.796791,,,0,1
2799,2799,"du PLATEAU/du PRADO",,  45.436277, -75.802162,,,0,1
2800,2800,"du PLATEAU/du PRADO",,  45.436073, -75.802397,,,0,1
2801,2801,"du PLATEAU/de l'AMÉRIQUE-FRANÇAISE",,  45.435276, -75.804516,,,0,1
2802,2802,"du PLATEAU/de l'AMÉRIQUE-FRANÇAISE",,  45.435494, -75.804623,,,0,2
2803,2803,"du PLATEAU/du MARIGOT",,  45.425770, -75.805861,,,0,1
2804,2804,"du PLATEAU/du MARIGOT",,  45.425449, -75.805638,,,0,1
2805,2805,"du PLATEAU/de la BOUSSOLE",,  45.423594, -75.806201,,,0,1
2806,2806,"du PLATEAU/du MARIGOT",,  45.422690, -75.806909,,,0,2
2807,2807,"de la MONTAGNE/du CHINOOK",,  45.449881, -75.785444,,,0,2
2808,2808,"de la MONTAGNE/de la BRISE",,  45.447929, -75.782341,,,0,2
2809,2809,"du PLATEAU/d'AMSTERDAM",,  45.432282, -75.806039,,,0,1
2810,2810,"KATIMAVIK/DU PLATEAU",,  45.421587, -75.807031,,,0,1
2811,2811,"du PLATEAU/KATIMAVIK",,  45.422263, -75.806933,,,0,1
2812,2812,"du PLATEAU/d'AMSTERDAM",,  45.432137, -75.805745,,,0,1
2813,2813,"des GRIVES/PINK",,  45.444754, -75.785604,,,0,2
2814,2814,"des GRIVES/du SHAMAL",,  45.446241, -75.787438,,,0,2
2815,2815,"des GRIVES/de la VAUDAIRE",,  45.447304, -75.789193,,,0,2
2816,2816,"des GRIVES/ZEPHYR",,  45.449659, -75.789552,,,0,2
2817,2817,"de l'AMÉRIQUE-FRANÇAISE/de l'ART MODERNE",,  45.435976, -75.806582,,,0,1
2818,2818,"de l'AMÉRIQUE-FRANÇAISE/de DUBLIN",,  45.435672, -75.806391,,,0,2
2819,2819,"de l'AMÉRIQUE-FRANÇAISE/de l'ART MODERNE",,  45.437042, -75.808528,,,0,2
2820,2820,"de SÉTO/KATIMAVIK - débarquement",,  45.419007, -75.806087,,,0,2
2821,2821,"du CONSERVATOIRE/du GLENBOW",,  45.439427, -75.809666,,,0,2
2822,2822,"du CONSERVATOIRE/du GLENBOW",,  45.439362, -75.809847,,,0,2
2823,2823,"des GRIVES/PINK",,  45.444765, -75.785504,,,0,2
2824,2824,"des GRIVES/du SHAMAL",,  45.446305, -75.787380,,,0,2
2825,2825,"des GRIVES/de la VAUDAIRE",,  45.447314, -75.789111,,,0,2
2826,2826,"des GRIVES/ZEPHYR",,  45.449646, -75.789469,,,0,2
2827,2827,"de la MONTAGNE/du CHINOOK",,  45.449896, -75.785432,,,0,2
2828,2828,"de la MONTAGNE/de la BRISE",,  45.447910, -75.782358,,,0,2
2829,2829,"chemin de le MONTAGNE/de la BRISE",,  45.448016, -75.782285,,,0,2
2830,2830,"du PLATEAU/de LIVERPOOL",,  45.430069, -75.805500,,,0,1
2831,2831,"du PLATEAU/de LIVERPOOL",,  45.429347, -75.805627,,,0,1
2832,2832,"MAISONNEUVE/SACRÉ-COEUR",,  45.436525, -75.711854,,,0,1
2833,2833,"de la CITÉ-DES-JEUNES/NOUVELLE-FRONTIÈRE",,  45.443429, -75.750562,,,0,1
2834,2834,"de la CITÉ-DES-JEUNES/GAMELIN",,  45.443613, -75.750847,,,0,1
2835,2835,"de la CITÉ-DES-JEUNES/SAINT-RAYMOND",,  45.445082, -75.750773,,,0,2
2836,2836,"de la CITÉ-DES-JEUNES/SAINT-RAYMOND",,  45.445461, -75.751103,,,0,2
2837,2837,"du MONT-BLEU/PHILIAS-FORTIN",,  45.461765, -75.749153,,,0,2
2838,2838,"SAINT-JOSEPH/FREEMAN",,  45.473529, -75.740507,,,0,1
2839,2839,"du PLATEAU/des SCOUTS",,  45.427463, -75.805123,,,0,1
2840,2840,"d'AMSTERDAM/de STOCKHOLM",,  45.431334, -75.807038,,,0,1
2841,2841,"d'AMSTERDAM/de STOCKHOLM",,  45.431382, -75.807286,,,0,1
2842,2842,"d'AMSTERDAM/de BARCELONE",,  45.431253, -75.811370,,,0,2
2843,2843,"d'AMSTERDAM/de BARCELONE",,  45.431369, -75.811190,,,0,1
2844,2844,"d'AMSTERDAM/LIVERPOOL",,  45.430103, -75.813993,,,0,2
2845,2845,"d'AMSTERDAM/de BARCELONE",,  45.431415, -75.814330,,,0,1
2846,2846,"de SÉTO/VANIER",,  45.418836, -75.807756,,,0,1
2847,2847,"d'AMSTERDAM/LIVERPOOL",,  45.429474, -75.813789,,,0,2
2848,2848,"d'AMSTERDAM/VANIER",,  45.427080, -75.814851,,,0,2
2849,2849,"d'AMSTERDAM/VANIER",,  45.427906, -75.814188,,,0,2
2850,2850,"de l'AMÉRIQUE-FRANÇAISE/VANIER",,  45.436545, -75.817911,,,0,2
2851,2851,"de l'AMÉRIQUE-FRANÇAISE/VANIER",,  45.436642, -75.818023,,,0,2
2852,2852,"de l'AMÉRIQUE-FRANÇAISE/de GÊNES",,  45.436777, -75.814838,,,0,2
2853,2853,"de l'AMÉRIQUE-FRANÇAISE/de GÊNES",,  45.436882, -75.814820,,,0,2
2854,2854,"de l'AMÉRIQUE-FRANÇAISE/D'ORSAY",,  45.436937, -75.811891,,,0,2
2855,2855,"de l'AMÉRIQUE-FRANÇAISE/D'ORSAY",,  45.437066, -75.811922,,,0,2
2856,2856,"du CONSERVATOIRE/de L'AMÉRIQUE-FRANÇAISE",,  45.437674, -75.809371,,,0,2
2857,2857,"du CONSERVATOIRE/de L'AMÉRIQUE-FRANÇAISE",,  45.437575, -75.809585,,,0,2
2858,2858,"du LOUVRE/de l'ACROPOLE",,  45.440992, -75.810047,,,0,2
2859,2859,"du LOUVRE/du CONSERVATOIRE",,  45.441127, -75.809907,,,0,2
2860,2860,"de la CITÉ-DES-JEUNES/des HAUTES-PLAINES",,  45.472456, -75.781464,,,0,1
2880,2880,"PINK/de la MONTAGNE",,  45.444639, -75.780606,,,0,1
3008,3008,"de la SAVANE/GRÉBER",,  45.473899, -75.702815,,,0,2
3011,3011,"des ANCIENS/LAFONTAINE",,  45.473324, -75.704112,,,0,2
3012,3012,"des ANCIENS/de la SAVANE",,  45.473325, -75.704258,,,0,2
3016,3016,"de l'ÉRABLIÈRE/PIERRE-PAPIN",,  45.472203, -75.706363,,,0,2
3024,3024,"de l'ÉRABLIÈRE/de l'ABBÉ-GINGUET",,  45.471468, -75.710514,,,0,2
3029,3029,"LOUIS-RIEL/LOUIS-JOLIETT",,  45.468343, -75.709689,,,0,2
3030,3030,"de l'ÉRABLIÈRE/LOUIS-RIEL",,  45.469883, -75.711796,,,0,2
3043,3043,"LAFRENIÈRE/MOREAU",,  45.466515, -75.706330,,,0,2
3044,3044,"LAFRENIÈRE/LOUIS-RIEL",,  45.467976, -75.705773,,,0,2
3045,3045,"LOUIS-RIEL/LOUIS-JOLIETT",,  45.468487, -75.709118,,,0,2
3046,3046,"LAFRENIÈRE/LOUIS-RIEL",,  45.468029, -75.705927,,,0,2
3047,3047,"de l'ÉRABLIÈRE/PIERRE-RADISSON",,  45.469461, -75.711599,,,0,2
3048,3048,"de l'ÉRABLIÈRE/de l'ABBÉ-GUINGUET",,  45.471477, -75.710251,,,0,2
3049,3049,"de l'ÉRABLIÈRE/PIERRE-PAPIN",,  45.472104, -75.706362,,,0,2
3050,3050,"de POINTE-GATINEAU/MOREAU",,  45.466389, -75.706226,,,0,2
3056,3056,"de POINTE-GATINEAU/COUSINEAU",,  45.466726, -75.702687,,,0,2
3057,3057,"de POINTE-GATINEAU/COUSINEAU",,  45.466600, -75.702775,,,0,2
3058,3058,"GRÉBER/LOUIS-RIEL",,  45.469259, -75.700595,,,0,2
3060,3060,"GRÉBER/LOUIS-RIEL",,  45.470853, -75.701107,,,0,1
3062,3062,"GRÉBER/LOUIS-RIEL",,  45.468681, -75.700828,,,0,1
3064,3064,"GRÉBER/LOUIS-RIEL",,  45.470258, -75.700735,,,0,2
3066,3066,"GRÉBER/de la SAVANE",,  45.472659, -75.701059,,,0,2
3068,3068,"GRÉBER/de la SAVANE",,  45.472441, -75.701376,,,0,1
3101,3101,"LES PROMENADES",,  45.474252, -75.697176,,,0,1
3103,3103,"de la CITÉ/LAUSANNE",,  45.477919, -75.679801,,,0,2
3104,3104,"de la SAVANE/SAINT-JOSAPHAT",,  45.474465, -75.693600,,,0,1
3105,3105,"LES PROMENADES",,  45.474133, -75.696018,,,0,1
3106,3106,"de la SAVANE/SAINT-JOSAPHAT",,  45.474398, -75.691856,,,0,1
3107,3107,"de la CITÉ/LAMARCHE",,  45.478656, -75.680137,,,0,1
3108,3108,"de la SAVANE/SAINT-ROSAIRE",,  45.474742, -75.688534,,,0,2
3109,3109,"de LAUSANNE/d'ALBANEL",,  45.477708, -75.684821,,,0,2
3110,3110,"de la SAVANE/SAINT-ROSAIRE",,  45.474624, -75.688264,,,0,1
3111,3111,"SAINT-JOSAPHAT/LAFERRIÈRE",,  45.473827, -75.692749,,,0,2
3113,3113,"de LAUSANNE/d'ALBANEL",,  45.477599, -75.684467,,,0,1
3115,3115,"de LAUSANNE/de la CITÉ",,  45.478177, -75.680568,,,0,2
3117,3117,"de LAUSANNE/de DUCHESNAY",,  45.477769, -75.681987,,,0,1
3119,3119,"de LAUSANNE/de la SAVANE",,  45.475901, -75.685964,,,0,2
3121,3121,"de LAUSANNE/de la SAVANE",,  45.476053, -75.685796,,,0,1
3124,3124,"de la CITÉ/de la SAVANE",,  45.476687, -75.677849,,,0,1
3125,3125,"de la CITÉ/de la SAVANE",,  45.476614, -75.678130,,,0,2
3127,3127,"de la CITÉ/de la FONTENELLE",,  45.474073, -75.677037,,,0,1
3128,3128,"de POINTE-GATINEAU/SAINT-ROSAIRE",,  45.467733, -75.689685,,,0,2
3129,3129,"de la CITÉ/de BRISTOL",,  45.474080, -75.677319,,,0,2
3130,3130,"de POINTE-GATINEAU/SAINT-ROSAIRE",,  45.467599, -75.689458,,,0,2
3137,3137,"SAINT-JOSAPHAT/ALINE",,  45.472821, -75.692106,,,0,2
3138,3138,"SAINT-JOSAPHAT/ALINE",,  45.472536, -75.691744,,,0,1
3139,3139,"SAINT-JOSAPHAT/MONSEIGNEUR-FORBES",,  45.470845, -75.691442,,,0,2
3141,3141,"SAINT-JOSAPHAT/MONSEIGNEUR-FORBES",,  45.470620, -75.691179,,,0,1
3143,3143,"SAINT-JOSAPHAT/SAINT-GEORGES",,  45.468629, -75.691159,,,0,2
3144,3144,"GRÉBER/SAINT-LOUIS",,  45.461956, -75.699699,,,0,1
3145,3145,"SAINT-JOSAPHAT/SAINT-GEORGES",,  45.468868, -75.690970,,,0,1
3146,3146,"GRÉBER/SAINT-LOUIS",,  45.462602, -75.700014,,,0,1
3147,3147,"GRÉBER/de POINTE-GATINEAU",,  45.464590, -75.700281,,,0,1
3148,3148,"GRÉBER/LAFORTUNE",,  45.463593, -75.699796,,,0,1
3150,3150,"GRÉBER/de POINTE-GATINEAU",,  45.466136, -75.700492,,,0,1
3152,3152,"GRÉBER/de POINTE-GATINEAU",,  45.466186, -75.700165,,,0,2
3154,3154,"de POINTE-GATINEAU/SAINT-ANTOINE",,  45.466925, -75.699683,,,0,2
3156,3156,"de POINTE-GATINEAU/SAINT-ANTOINE",,  45.466772, -75.699633,,,0,2
3189,3189,"de POINTE-GATINEAU/BERTHE",,  45.468349, -75.687395,,,0,2
3190,3190,"de POINTE-GATINEAU/BERTHE",,  45.468037, -75.687496,,,0,2
3192,3192,"de POINTE-GATINEAU/FLORIAN-THIBAULT",,  45.470000, -75.685111,,,0,2
3194,3194,"de POINTE-GATINEAU/FLORIAN-THIBAULT",,  45.469930, -75.684945,,,0,2
3195,3195,"de POINTE-GATINEAU/JEAN-TALON",,  45.470649, -75.684196,,,0,2
3198,3198,"de POINTE-GATINEAU/ROBERT-SAVOIE",,  45.470802, -75.683676,,,0,2
3200,3200,"de la SAVANE/FLORIAN-THIBAULT",,  45.474775, -75.686142,,,0,1
3207,3207,"de PICARDIE/de PROVENCE",,  45.471135, -75.721740,,,0,2
3209,3209,"SAINT-ANTOINE/LAFORTUNE",,  45.464767, -75.699158,,,0,2
3211,3211,"SAINT-ANTOINE/ONÉSIME",,  45.464949, -75.698943,,,0,2
3215,3215,"SAINT-ANTOINE/AIMÉ",,  45.462071, -75.698549,,,0,2
3216,3216,"de POINTE-GATINEAU/JOLY",,  45.471778, -75.681449,,,0,2
3217,3217,"SAINT-LOUIS/SAINT-ANTOINE",,  45.461600, -75.698978,,,0,2
3218,3218,"de POINTE-GATINEAU/JOLY",,  45.471721, -75.680527,,,0,2
3219,3219,"SAINT-LOUIS/de BRISTOL",,  45.472187, -75.677808,,,0,1
3220,3220,"SAINT-LOUIS/de la CITÉ",,  45.472006, -75.677934,,,0,2
3221,3221,"Quai local de la GAPPE #4",,  45.468868, -75.716317,,,0,1
3222,3222,"Quai local de la GAPPE #5",,  45.468695, -75.716580,,,0,1
3223,3223,"Quai local de la GAPPE #6",,  45.468393, -75.717060,,,0,1
3226,3226,"GRÉBER/JACQUES-CARTIER",,  45.458100, -75.700214,,,0,1
3228,3228,"GRÉBER/JACQUES-CARTIER",,  45.457968, -75.699752,,,0,2
3230,3230,"GRÉBER/SAINT-LOUIS",,  45.460174, -75.699689,,,0,2
3232,3232,"GRÉBER/PHILÉAS-LEGAULT",,  45.460037, -75.700020,,,0,1
3236,3236,"SAINT-LOUIS/GRÉBER",,  45.461126, -75.700525,,,0,2
3239,3239,"SAINT-LOUIS/MARENGÈRE",,  45.461181, -75.702586,,,0,2
3240,3240,"SAINT-LOUIS/MARENGÈRE",,  45.460989, -75.703639,,,0,2
3244,3244,"SAINT-LOUIS/JOSEPH-BÉLANGER",,  45.460883, -75.706178,,,0,2
3245,3245,"SAINT-LOUIS/RENÉ",,  45.460789, -75.709088,,,0,2
3246,3246,"SAINT-LOUIS/BLAIS",,  45.460917, -75.710507,,,0,2
3247,3247,"SAINT-LOUIS/MOREAU",,  45.461034, -75.706211,,,0,2
3254,3254,"SAINT-LOUIS/JACQUES-CARTIER",,  45.459046, -75.714615,,,0,1
3258,3258,"SAINT-LOUIS/de la GAPPE",,  45.461196, -75.720500,,,0,2
3260,3260,"SAINT-LOUIS/de la GAPPE",,  45.461136, -75.720154,,,0,1
3271,3271,"de la GAPPE/OXFORD",,  45.462432, -75.720055,,,0,2
3273,3273,"de la GAPPE/OXFORD",,  45.462540, -75.720121,,,0,2
3275,3275,"de la GAPPE/CARMEN",,  45.463839, -75.718295,,,0,1
3279,3279,"de la GAPPE/CARMEN",,  45.464562, -75.717754,,,0,1
3282,3282,"des FLANDRES/de PIEDMONT",,  45.470406, -75.718788,,,0,1
3284,3284,"des FLANDRES/de PIEDMONT",,  45.470319, -75.718442,,,0,1
3285,3285,"de PROVENCE/de PICARDIE",,  45.471554, -75.722206,,,0,2
3286,3286,"des FLANDRES/de TOURS",,  45.473307, -75.720438,,,0,1
3287,3287,"des FLANDRES/de TOURS",,  45.473336, -75.720620,,,0,2
3291,3291,"des FLANDRES/de NANTES",,  45.475694, -75.721043,,,0,2
3293,3293,"des FLANDRES/de NANTES",,  45.475884, -75.720854,,,0,1
3295,3295,"des FLANDRES/d'AUVERGNE",,  45.477140, -75.721522,,,0,2
3297,3297,"des FLANDRES/d'AUVERGNE",,  45.477170, -75.721260,,,0,1
3305,3305,"SAINT-LOUIS/BLAIS",,  45.460594, -75.711831,,,0,2
3307,3307,"de TURIN/des FLANDRES",,  45.469647, -75.716450,,,0,1
3316,3316,"d'AUVERGNE/de MONACO",,  45.478790, -75.716835,,,0,2
3317,3317,"de BOURGOGNE/de ROCHEFORT",,  45.484337, -75.717839,,,0,2
3319,3319,"de BOURGOGNE/d'ALSACE",,  45.482751, -75.716744,,,0,2
3320,3320,"de BOURGOGNE/d'ALENCON",,  45.482787, -75.716586,,,0,2
3321,3321,"de BOURGOGNE/de SAINT-RÉMY",,  45.480336, -75.716372,,,0,2
3322,3322,"de BOURGOGNE/d'ANGERS",,  45.480703, -75.716264,,,0,2
3324,3324,"d'AUVERGNE/de SAINT-ÉLOI",,  45.478859, -75.720073,,,0,1
3325,3325,"d'AUVERGNE/de MONACO",,  45.478700, -75.716757,,,0,1
3326,3326,"d'AUVERGNE/de MARSEILLE",,  45.478751, -75.720936,,,0,2
3333,3333,"STATION LES PROMENADES",,  45.478003, -75.697627,,,0,1
3334,3334,"SAINT-LOUIS/LEBAUDY",,  45.489676, -75.748184,,,0,1
3351,3351,"GRÉBER/de VARENNES",,  45.493617, -75.703405,,,0,2
3352,3352,"Av. GATINEAU/SAINT-LOUIS",,  45.475734, -75.730358,,,0,1
3354,3354,"Av. GATINEAU/DUCERRE",,  45.476214, -75.729692,,,0,2
3356,3356,"Av. GATINEAU/de BOULOGNE",,  45.477208, -75.727858,,,0,1
3364,3364,"Av. GATINEAU/de BOULOGNE",,  45.477415, -75.727795,,,0,2
3374,3374,"Av. GATINEAU/de TOURAINE",,  45.482009, -75.720768,,,0,1
3375,3375,"de TOURAINE/d'AUVERGNE",,  45.479277, -75.720551,,,0,2
3378,3378,"Av. GATINEAU/de BERNAY",,  45.483069, -75.719472,,,0,1
3379,3379,"de TOURAINE/Av. GATINEAU",,  45.481509, -75.721061,,,0,2
3382,3382,"Av. GATINEAU/de ROCHEFORT",,  45.486642, -75.716480,,,0,1
3384,3384,"Av. GATINEAU/de ROCHEFORT",,  45.486170, -75.716992,,,0,2
3385,3385,"Av. GATINEAU/de BERNAY",,  45.483544, -75.719084,,,0,1
3386,3386,"Av. GATINEAU/de BOURGOGNE",,  45.484746, -75.717915,,,0,1
3387,3387,"PROVENCE/de TOULON",,  45.472887, -75.722603,,,0,2
3388,3388,"PROVENCE/de NANTES",,  45.473910, -75.722799,,,0,2
3389,3389,"de PROVENCE/d'AUVERGNE",,  45.475112, -75.724836,,,0,2
3390,3390,"de PROVENCE/d'AUVERGNE",,  45.475283, -75.724863,,,0,2
3393,3393,"de BOULOGNE/de FONTAINEBLEAU",,  45.476259, -75.725517,,,0,2
3394,3394,"de BOULOGNE/de FONTAINEBLEAU",,  45.476256, -75.725315,,,0,2
3396,3396,"SAINT-LOUIS/Av. GATINEAU",,  45.476784, -75.735029,,,0,2
3398,3398,"SAINT-LOUIS/Av. GATINEAU",,  45.476587, -75.734808,,,0,2
3400,3400,"SAINT-LOUIS/de NANTEL",,  45.478115, -75.737925,,,0,2
3401,3401,"SAINT-LOUIS/de NANTEL",,  45.481163, -75.739884,,,0,2
3402,3402,"SAINT-LOUIS/de NANTEL",,  45.481610, -75.740325,,,0,2
3403,3403,"SAINT-LOUIS/de LENOIR",,  45.478776, -75.738739,,,0,2
3406,3406,"SAINT-LOUIS/CARTIER",,  45.484742, -75.741773,,,0,1
3416,3416,"de CANNES/de MONTÉ-CARLO",,  45.488115, -75.733020,,,0,2
3418,3418,"de CANNES/de MONTÉ-CARLO",,  45.488004, -75.733110,,,0,1
3420,3420,"de CANNES/de VENCE",,  45.490551, -75.735694,,,0,2
3421,3421,"de CANNES/de CASTILLOU",,  45.489601, -75.734471,,,0,2
3422,3422,"de CANNES/de VILLEFRANCHE",,  45.490487, -75.735872,,,0,1
3423,3423,"de CANNES/de CASTILLOU",,  45.489410, -75.734488,,,0,1
3424,3424,"École secondaire de L'ÉRABLIÈRE",,  45.492521, -75.739720,,,0,1
3426,3426,"École secondaire de L'ÉRABLIÈRE",,  45.492687, -75.739561,,,0,1
3430,3430,"SAINT-LOUIS/de MONTÉ-CARLO",,  45.483807, -75.741646,,,0,2
3432,3432,"SAINT-LOUIS/du PONT ALONZO-WRIGHT",,  45.487141, -75.744031,,,0,1
3434,3434,"SAINT-LOUIS/du PONT ALONZO-WRIGHT",,  45.487921, -75.745744,,,0,1
3438,3438,"du PONT ALONZO- WRIGHT/SAINT-LOUIS",,  45.488100, -75.747243,,,0,1
3440,3440,"SAINT-LOUIS/LEBAUDY",,  45.488787, -75.746711,,,0,1
3454,3454,"SAINT-LOUIS/des ÉRABLES",,  45.493208, -75.756154,,,0,1
3458,3458,"la VÉRENDRYE OUEST/du BARRY",,  45.488059, -75.712844,,,0,2
3462,3462,"du BARRY/DRAPEAU",,  45.487459, -75.712299,,,0,2
3463,3463,"du BARRY/de BOURASSA",,  45.485507, -75.711996,,,0,2
3464,3464,"du BARRY/de BOURASSA",,  45.485558, -75.711831,,,0,1
3465,3465,"du BARRY/d'OLIER",,  45.482595, -75.709999,,,0,1
3466,3466,"du BARRY/d'OLIER",,  45.482552, -75.709653,,,0,2
3471,3471,"des GRANDS-JARDINS/de la POINTE-TAILLON",,  45.506302, -75.751184,,,0,1
3472,3472,"des GRANDS-JARDINS/de la POINTE-TAILLON",,  45.506130, -75.751348,,,0,2
3473,3473,"des GRANDS-JARDINS/de la POINTE-PELÉE",,  45.505971, -75.753535,,,0,2
3474,3474,"des GRANDS-JARDINS/de la POINTE-PELÉE",,  45.505851, -75.753033,,,0,2
3475,3475,"des GRANDS-JARDINS/de PORT-DANIEL",,  45.504878, -75.757981,,,0,1
3476,3476,"des GRANDS-JARDINS/de PORT-DANIEL",,  45.504595, -75.758829,,,0,2
3478,3478,"des GRANDS-JARDINS/d'ANTICOSTI",,  45.505445, -75.756843,,,0,2
3480,3480,"QUAI LOCAL de la CITÉ #5",,  45.481582, -75.682460,,,0,1
3481,3481,"QUAI LOCAL de la CITÉ #6",,  45.481527, -75.682764,,,0,1
3482,3482,"QUAI LOCAL de la CITÉ #7",,  45.481498, -75.683052,,,0,1
3483,3483,"QUAI LOCAL de la CITÉ #8",,  45.481473, -75.683475,,,0,1
3484,3484,"QUAI LOCAL de la CITÉ #9",,  45.481456, -75.683869,,,0,1
3485,3485,"QUAI LOCAL de la CITÉ #10",,  45.481441, -75.684075,,,0,1
3492,3492,"du BARRY/le BARON",,  45.481454, -75.708206,,,0,2
3493,3493,"PIERRE-LAFONTAINE/ÉMILE-D'AURAY",,  45.479073, -75.704657,,,0,1
3494,3494,"du BARRY/le BARON",,  45.481342, -75.707594,,,0,2
3495,3495,"du BARRY/MATAPÉDIA",,  45.481533, -75.704627,,,0,2
3497,3497,"du BARRY/MATAPÉDIA",,  45.481401, -75.704443,,,0,1
3500,3500,"QUAI LOCAL de la CITÉ arrivée",,  45.481457, -75.684022,,,0,1
3504,3504,"PIERRE-LAFONTAINE/ÉMILE-D'AURAY",,  45.479586, -75.704536,,,0,2
3506,3506,"PIERRE-LAFONTAINE/VASSAL",,  45.477891, -75.706511,,,0,2
3508,3508,"PIERRE-LAFONTAINE/VASSAL",,  45.477953, -75.706703,,,0,1
3510,3510,"PIERRE-LAFONTAINE/de TRACY",,  45.477701, -75.709553,,,0,2
3511,3511,"de SILLERY/de PIERREFONDS",,  45.475539, -75.708693,,,0,2
3512,3512,"PIERRE-LAFONTAINE/de TRACY",,  45.477792, -75.709401,,,0,1
3513,3513,"de SILLERY/de MONTFORT",,  45.476031, -75.709561,,,0,1
3514,3514,"de la GAPPE/CLERMONT",,  45.477527, -75.702834,,,0,1
3515,3515,"de la GAPPE/CLERMONT",,  45.477492, -75.702527,,,0,1
3519,3519,"d'ORLÉANS/GRÉBER",,  45.480868, -75.700969,,,0,1
3520,3520,"GRÉBER/d'ORLÉANS",,  45.480083, -75.701137,,,0,1
3521,3521,"d'ORLÉANS/GRÉBER",,  45.480756, -75.700832,,,0,2
3522,3522,"de la GAPPE/de SILLERY",,  45.474881, -75.708546,,,0,2
3523,3523,"GRÉBER/du BARRY",,  45.482052, -75.701723,,,0,1
3524,3524,"de la GAPPE/de SILLERY",,  45.475211, -75.707641,,,0,2
3525,3525,"GRÉBER/de VARENNES",,  45.491036, -75.703002,,,0,1
3526,3526,"GRÉBER/BEAUSÉJOUR",,  45.482254, -75.701538,,,0,2
3527,3527,"GRÉBER/de VARENNES",,  45.494140, -75.703335,,,0,2
3531,3531,"GRÉBER/de VARENNES",,  45.491263, -75.702813,,,0,2
3533,3533,"GRÉBER/la VÉRENDRYE OUEST",,  45.488843, -75.702619,,,0,1
3543,3543,"des FLANDRES/de PICARDIE",,  45.471308, -75.719814,,,0,2
3544,3544,"des FLANDRES/de GASCOGNE",,  45.471216, -75.719956,,,0,1
3545,3545,"du BARRY/de BROME",,  45.483793, -75.711514,,,0,2
3546,3546,"du BARRY/de MATANE",,  45.483704, -75.711671,,,0,1
3547,3547,"de SILLERY/de MONTFORT",,  45.476780, -75.710142,,,0,2
3548,3548,"GRÉBER/SAINT-RENÉ OUEST",,  45.487919, -75.702727,,,0,1
3552,3552,"GRÉBER/de l'ACADIE",,  45.487404, -75.702405,,,0,1
3558,3558,"SAINT-RENÉ OUEST/ERNEST-GABOURY",,  45.488597, -75.699716,,,0,1
3565,3565,"SAINT-RENÉ OUEST/GRÉBER",,  45.488686, -75.700699,,,0,1
3566,3566,"SAINT-RENÉ OUEST/ERNEST-GABOURY",,  45.488879, -75.698125,,,0,1
3567,3567,"SAINT-RENÉ OUEST/GRÉBER",,  45.488420, -75.702034,,,0,1
3568,3568,"NELLIGAN/LOUIS-HÉMON",,  45.485823, -75.695848,,,0,1
3569,3569,"ERNEST-GABOURY/SAINT-RENÉ OUEST",,  45.488489, -75.697738,,,0,2
3570,3570,"NELLIGAN/de TROYES",,  45.486440, -75.696836,,,0,2
3571,3571,"NELLIGAN/LOUIS-HÉMON",,  45.485097, -75.695299,,,0,2
3572,3572,"NELLIGAN/de la DRAVE",,  45.483646, -75.694847,,,0,2
3574,3574,"NELLIGAN/de la DRAVE",,  45.483722, -75.694678,,,0,1
3575,3575,"du CARREFOUR/de la CITÉ",,  45.486126, -75.679000,,,0,2
3576,3576,"NELLIGAN/BEAUSÉJOUR",,  45.481667, -75.695477,,,0,2
3577,3577,"de la CITÉ/de la GAPPE",,  45.485404, -75.681371,,,0,1
3578,3578,"NELLIGAN/d'ORLÉANS",,  45.481632, -75.695310,,,0,1
3579,3579,"de la CITÉ/de la GAPPE",,  45.484370, -75.681012,,,0,1
3580,3580,"d'ORLÉANS/NELLIGAN",,  45.481117, -75.697210,,,0,1
3582,3582,"d'ORLÉANS/NELLIGAN",,  45.480930, -75.698219,,,0,2
3587,3587,"de la CITÉ/LAMARCHE",,  45.480122, -75.680365,,,0,1
3588,3588,"de la CITÉ/LAMARCHE",,  45.480247, -75.680668,,,0,1
3590,3590,"de la CITÉ/de la GAPPE",,  45.482294, -75.680698,,,0,1
3591,3591,"de la CITÉ/MALONEY OUEST",,  45.483005, -75.681062,,,0,1
3593,3593,"de la GAPPE/de la CITÉ",,  45.483846, -75.683450,,,0,1
3594,3594,"MALONEY OUEST/de la CITÉ",,  45.481557, -75.679516,,,0,1
3596,3596,"MALONEY OUEST/MONTÉE PAIEMENT",,  45.482823, -75.675271,,,0,1
3598,3598,"MALONEY OUEST/MONTÉE PAIEMENT",,  45.482230, -75.676572,,,0,1
3599,3599,"de l'HÔPITAL/SAINT-RENÉ OUEST",,  45.489109, -75.688876,,,0,2
3603,3603,"de l'HÔPITAL/de ROUVILLE",,  45.483587, -75.688171,,,0,2
3604,3604,"de la GAPPE/de ROUVILLE",,  45.482368, -75.686784,,,0,2
3605,3605,"de l'HÔPITAL/de ROUVILLE",,  45.484197, -75.687946,,,0,2
3608,3608,"de la GAPPE/de ROUVILLE",,  45.482141, -75.687063,,,0,2
3613,3613,"de l'HÔPITAL/de la CITÉ-JARDIN",,  45.485751, -75.688164,,,0,2
3616,3616,"SAINT-RENÉ OUEST/DUQUETTE",,  45.490606, -75.674420,,,0,2
3617,3617,"de l'HÔPITAL/de la CITÉ-JARDIN",,  45.485295, -75.688403,,,0,2
3619,3619,"du CARREFOUR/ MONTÉE PAIEMENT",,  45.486460, -75.675317,,,0,1
3620,3620,"SAINT-RENÉ OUEST/DUBEAU",,  45.490803, -75.673137,,,0,1
3621,3621,"la VÉRENDRYE OUEST/de la CITÉ",,  45.492524, -75.681840,,,0,2
3624,3624,"SAINT-RENÉ OUEST/ANTOINE",,  45.490993, -75.670364,,,0,1
3626,3626,"SAINT-RENÉ OUEST/ANTOINE",,  45.490858, -75.670430,,,0,2
3627,3627,"de la FUTAIE",,  45.487271, -75.688674,,,0,1
3628,3628,"SAINT-RENÉ OUEST/MAUDE",,  45.491152, -75.665971,,,0,1
3629,3629,"la VÉRENDRYE OUEST/ de l'HÔPITAL",,  45.492054, -75.688169,,,0,2
3630,3630,"de l'OASIS/de la CITÉ",,  45.493272, -75.682378,,,0,2
3631,3631,"de la CITÉ/la VÉRENDRYE OUEST",,  45.493352, -75.682619,,,0,2
3632,3632,"SAINT-RENÉ OUEST/LAVIOLETTE",,  45.491448, -75.661557,,,0,1
3633,3633,"la VÉRENDRYE OUEST/de la CITÉ",,  45.492606, -75.683178,,,0,2
3634,3634,"SAINT-RENÉ OUEST/du VIGNEAU",,  45.491761, -75.657319,,,0,2
3635,3635,"NOBERT/DAVIDSON",,  45.505821, -75.667676,,,0,1
3636,3636,"SAINT-RENÉ OUEST/GAUTHIER",,  45.491975, -75.654249,,,0,1
3637,3637,"NOBERT/RADMORE",,  45.504110, -75.667861,,,0,1
3638,3638,"NOBERT/RADMORE",,  45.504289, -75.668080,,,0,2
3639,3639,"NOBERT/du PINOT",,  45.502695, -75.669939,,,0,1
3640,3640,"NOBERT/du PINOT",,  45.502839, -75.669650,,,0,2
3641,3641,"la VÉRENDRYE OUEST/LAFRANCE",,  45.497183, -75.667177,,,0,2
3642,3642,"la VÉRENDRYE OUEST/LAFRANCE",,  45.496896, -75.667143,,,0,1
3644,3644,"la VÉRENDRYE OUEST/du COTEAU",,  45.496159, -75.672861,,,0,2
3645,3645,"la VÉRENDRYE OUEST/MONTÉE PAIEMENT",,  45.494616, -75.675082,,,0,1
3646,3646,"la VÉRENDRYE OUEST/GÉNÉREUX",,  45.496091, -75.672134,,,0,1
3647,3647,"la VÉRENDRYE OUEST/MONTÉE PAIEMENT",,  45.493553, -75.678110,,,0,2
3648,3648,"MONTÉE PAIEMENT/la VÉRENDRYE OUEST",,  45.495129, -75.675728,,,0,1
3650,3650,"MONTÉE PAIEMENT/HARRIS",,  45.495960, -75.676096,,,0,2
3651,3651,"MONTÉE PAIEMENT/LAHAIE",,  45.500007, -75.676670,,,0,2
3652,3652,"GRÉBER/DUGAS",,  45.504534, -75.687464,,,0,2
3653,3653,"GRÉBER/DUGAS",,  45.504713, -75.687555,,,0,2
3656,3656,"NOBERT/de SAUTERNES",,  45.502526, -75.674458,,,0,1
3657,3657,"DAVIDSON/NOBERT",,  45.506025, -75.667151,,,0,2
3660,3660,"NOBERT/MONTÉE PAIEMENT",,  45.502216, -75.675742,,,0,2
3661,3661,"DUGAS/GRÉBER",,  45.503519, -75.681554,,,0,1
3662,3662,"NOBERT/de SAUTERNES",,  45.502499, -75.673416,,,0,1
3663,3663,"NOBERT/LEBOEUF",,  45.501311, -75.679396,,,0,1
3665,3665,"LEMAY/NOBERT",,  45.500003, -75.681275,,,0,1
3666,3666,"LEMAY/TROTTIER",,  45.501420, -75.683243,,,0,2
3667,3667,"DUGAS/GRÉBER",,  45.503544, -75.681246,,,0,2
3668,3668,"SAINT-RENÉ OUEST/ LAFRANCE",,  45.491156, -75.667526,,,0,1
3669,3669,"LEMAY/TROTTIER",,  45.501587, -75.683524,,,0,1
3675,3675,"NOBERT/LEBOEUF",,  45.500144, -75.680434,,,0,1
3679,3679,"NOBERT/MONTÉE PAIEMENT",,  45.501866, -75.678125,,,0,1
3683,3683,"GRÉBER/DUGAS",,  45.504219, -75.693361,,,0,2
3685,3685,"GRÉBER/DUGAS",,  45.504066, -75.693385,,,0,2
3687,3687,"de l'OASIS/du DÉSERT",,  45.494480, -75.685844,,,0,2
3689,3689,"de l'OASIS/du DÉSERT",,  45.494188, -75.686570,,,0,2
3691,3691,"1064, boul. Gréber",,  45.503827, -75.696934,,,0,2
3693,3693,"de la FUTAIE",,  45.487479, -75.688362,,,0,2
3695,3695,"1061, boul. Gréber",,  45.503783, -75.696437,,,0,2
3696,3696,"SAINT-RENÉ OUEST/ST-MARC",,  45.491501, -75.662383,,,0,2
3698,3698,"SAINT-RENÉ OUEST/du VIGNEAU",,  45.491832, -75.657734,,,0,2
3701,3701,"GRÉBER/d'OUTREMONT",,  45.503171, -75.701433,,,0,1
3702,3702,"SAINT-RENÉ OUEST/MAIN",,  45.492215, -75.652535,,,0,2
3703,3703,"GRÉBER/d'OUTREMONT",,  45.503073, -75.701501,,,0,1
3704,3704,"GRÉBER/de la CÔTE-DES-NEIGES",,  45.499622, -75.704504,,,0,1
3705,3705,"GRÉBER/de la CÔTE-DES-NEIGES",,  45.499579, -75.704367,,,0,1
3706,3706,"NOBERT/MONTÉE PAIEMENT",,  45.502108, -75.677531,,,0,1
3707,3707,"NOBERT/MONTÉE PAIEMENT",,  45.501990, -75.676245,,,0,1
3708,3708,"MAIN/SAINT-RENÉ OUEST",,  45.492208, -75.651308,,,0,1
3709,3709,"de la CÔTE-DES-NEIGES/ERNEST-GABOURY",,  45.500727, -75.696777,,,0,2
3710,3710,"de la CÔTE-DES-NEIGES/de l'ÉPÉE",,  45.500098, -75.703006,,,0,1
3711,3711,"de la CÔTE-DES-NEIGES/de l'ÉPÉE",,  45.499948, -75.703036,,,0,2
3712,3712,"SAINT-RENÉ EST/MCMILLAN",,  45.492476, -75.649192,,,0,2
3713,3713,"de la CÔTE-DES-NEIGES/ERNEST-GABOURY",,  45.500615, -75.696916,,,0,2
3717,3717,"MONTÉE PAIEMENT/SAINT-RENÉ OUEST",,  45.491031, -75.675264,,,0,1
3718,3718,"SAINT-RENÉ EST/de VAUQUELIN",,  45.492543, -75.647086,,,0,1
3720,3720,"SAINT-RENÉ EST/LABROSSE",,  45.493021, -75.640485,,,0,1
3721,3721,"MONTÉE PAIEMENT/FILIATREAULT",,  45.493065, -75.675496,,,0,1
3722,3722,"GRÉBER/de la CÔTE-DES-NEIGES",,  45.497860, -75.704000,,,0,2
3723,3723,"MONTÉE PAIEMENT/FILIATREAULT",,  45.492992, -75.675805,,,0,2
3724,3724,"SAINT-RENÉ EST/SUNSET",,  45.493279, -75.637139,,,0,2
3725,3725,"GRÉBER/de la CÔTE-DES-NEIGES",,  45.497943, -75.704195,,,0,2
3727,3727,"de la GAPPE/de ROUVILLE",,  45.483195, -75.685413,,,0,1
3728,3728,"SAINT-RENÉ EST/SUNSET",,  45.493887, -75.633936,,,0,2
3732,3732,"SAINT-RENÉ EST/SUNSET",,  45.494684, -75.631773,,,0,2
3733,3733,"de la GAPPE/de ROUVILLE",,  45.482718, -75.685641,,,0,2
3735,3735,"SAINT-RENÉ EST/de BÉCANCOUR",,  45.497663, -75.627006,,,0,2
3736,3736,"SAINT-RENÉ EST/MARCELLE-FERRON",,  45.498976, -75.620156,,,0,2
3740,3740,"SAINT-RENÉ EST/HUBERT",,  45.498811, -75.617752,,,0,2
3741,3741,"MALONEY EST/MITCHELL",,  45.489041, -75.598845,,,0,1
3743,3743,"SAINT-RENÉ EST/PAUL-LAFRAMBOISE",,  45.510200, -75.572504,,,0,1
3744,3744,"SAINT-RENÉ EST/du VERMONT",,  45.498238, -75.613055,,,0,2
3745,3745,"SAINT-RENÉ EST/du CHEVAL-BLANC",,  45.505844, -75.581244,,,0,1
3748,3748,"SAINT-RENÉ EST/GUIGUES",,  45.497983, -75.610645,,,0,2
3749,3749,"SAINT-RENÉ EST/des PALOMINOS",,  45.506334, -75.574666,,,0,1
3752,3752,"SAINT-RENÉ EST/LORRAIN",,  45.498141, -75.608427,,,0,2
3756,3756,"du SOUS-BOIS/MONTÉE DALTON",,  45.507877, -75.588446,,,0,2
3759,3759,"SAINT-RENÉ EST/des FRÈRES-VACHON",,  45.507878, -75.572240,,,0,1
3764,3764,"SAINT-RENÉ EST/BOYES",,  45.499527, -75.603314,,,0,2
3765,3765,"SAINT-RENÉ EST/TRAVERSY",,  45.500515, -75.598622,,,0,2
3769,3769,"SAINT-RENÉ EST/BERTHIAUME",,  45.502275, -75.595068,,,0,2
3772,3772,"de l'AÉROPORT/JEAN-LOUIS-MALETTE",,  45.507001, -75.561271,,,0,2
3773,3773,"SAINT-RENÉ EST/LAURE",,  45.504075, -75.592656,,,0,2
3774,3774,"de l'AÉROPORT/PIERRE-MÉNARD",,  45.508654, -75.561511,,,0,2
3776,3776,"ATMEC/de l'AÉROPORT",,  45.511461, -75.562718,,,0,2
3777,3777,"SAINT-RENÉ EST/MONTÉE DALTON",,  45.505133, -75.589088,,,0,2
3778,3778,"MALONEY EST/LORRAIN",,  45.487376, -75.602153,,,0,1
3780,3780,"ATMEC/AUMOND",,  45.511334, -75.564659,,,0,2
3782,3782,"ATMEC/BELCOURT",,  45.511115, -75.568752,,,0,2
3784,3784,"MALONEY EST/DORÉ",,  45.484730, -75.608257,,,0,1
3788,3788,"MALONEY EST/DUPUIS",,  45.485820, -75.606464,,,0,2
3789,3789,"MALONEY EST/JOSEPH-ROY",,  45.489207, -75.597847,,,0,1
3790,3790,"MALONEY EST/DUPUIS",,  45.485641, -75.606258,,,0,1
3791,3791,"des SABLES/BEL-AIR",,  45.491603, -75.592883,,,0,2
3792,3792,"des SABLES/du SAGUENAY",,  45.494611, -75.593461,,,0,1
3793,3793,"des SABLES/du SAGUENAY",,  45.494823, -75.593352,,,0,2
3794,3794,"MALONEY EST/MITCHELL",,  45.488251, -75.600106,,,0,2
3796,3796,"MALONEY EST/JOSEPH-ROY",,  45.490199, -75.595250,,,0,1
3798,3798,"MALONEY EST/JOSEPH-ROY",,  45.490928, -75.593632,,,0,1
3800,3800,"MALONEY EST/PASTEUR",,  45.492039, -75.589141,,,0,1
3803,3803,"MALONEY EST/PASTEUR",,  45.492163, -75.588129,,,0,1
3804,3804,"MALONEY EST/PASTEUR",,  45.493161, -75.584786,,,0,1
3805,3805,"MALONEY EST/PASTEUR",,  45.493135, -75.584106,,,0,1
3806,3806,"MALONEY EST/du CHEVAL-BLANC",,  45.494162, -75.580932,,,0,1
3807,3807,"MALONEY EST/des SABLES",,  45.491068, -75.592100,,,0,2
3808,3808,"MALONEY EST/du CHEVAL-BLANC",,  45.494050, -75.580633,,,0,2
3809,3809,"du CHEVAL-BLANC/DE LA GALÉASSE",,  45.500083, -75.581159,,,0,2
3811,3811,"du CHEVAL-BLANC/CHÂTEAUGUAY",,  45.497116, -75.580639,,,0,2
3816,3816,"DORÉ/MALONEY EST",,  45.484221, -75.608917,,,0,2
3817,3817,"du CHEVAL-BLANC/des FAUVETTES",,  45.500174, -75.580968,,,0,2
3819,3819,"NOTRE-DAME/DORÉ",,  45.481889, -75.608293,,,0,2
3820,3820,"NOTRE-DAME/DORÉ",,  45.481927, -75.608446,,,0,2
3833,3833,"du CHEVAL-BLANC/de la CHÂTEAUGUAY",,  45.497926, -75.580625,,,0,2
3835,3835,"du CHEVAL-BLANC/de MIRABEL",,  45.494916, -75.580153,,,0,2
3837,3837,"NOTRE-DAME/de CHAMBERLAND",,  45.481106, -75.612671,,,0,2
3838,3838,"NOTRE-DAME/de CHAMBERLAND",,  45.480888, -75.614703,,,0,2
3840,3840,"NOTRE-DAME/de CHAMBERLAND",,  45.481015, -75.612849,,,0,2
3843,3843,"NOTRE-DAME/de CHAMBERLAND",,  45.480798, -75.614753,,,0,2
3844,3844,"NOTRE-DAME/du LAC",,  45.480565, -75.617924,,,0,2
3845,3845,"du CHEVAL-BLANC/de la FRÉGATE",,  45.501973, -75.581281,,,0,2
3846,3846,"NOTRE-DAME/du LAC",,  45.480665, -75.617733,,,0,2
3847,3847,"du CHEVAL-BLANC/de la FRÉGATE",,  45.502601, -75.581582,,,0,2
3848,3848,"NOTRE-DAME/du LAC",,  45.480573, -75.619677,,,0,2
3850,3850,"NOTRE-DAME/du LAC",,  45.480724, -75.620037,,,0,2
3854,3854,"NOTRE-DAME/MONSEIGNEUR-LEMIEUX",,  45.480731, -75.623811,,,0,2
3855,3855,"du SOUS-BOIS/de la CLAIRIÈRE",,  45.508071, -75.585786,,,0,2
3856,3856,"NOTRE-DAME/MONSEIGNEUR-LEMIEUX",,  45.480996, -75.623222,,,0,1
3858,3858,"NOTRE-DAME/de VERSAILLES",,  45.480751, -75.625621,,,0,2
3860,3860,"NOTRE-DAME/de VERSAILLES",,  45.480984, -75.627147,,,0,1
3861,3861,"NOTRE-DAME/de VERCHÈRES",,  45.480917, -75.634752,,,0,1
3862,3862,"NOTRE-DAME/de CÔTÉVILLE",,  45.480842, -75.630468,,,0,1
3864,3864,"NOTRE-DAME/de CÔTÉVILLE",,  45.480941, -75.630489,,,0,1
3865,3865,"NOTRE-DAME/PLOUFFE",,  45.480880, -75.635282,,,0,1
3869,3869,"du SOUS-BOIS/du CHEVAL-BLANC",,  45.508201, -75.582863,,,0,2
3871,3871,"POB CHEVAL-BLANC",,  45.505119, -75.582196,,,0,1
3874,3874,"NOTRE-DAME/LABROSSE",,  45.481233, -75.638864,,,0,1
3875,3875,"GRÉBER/DUGAS",,  45.505004, -75.684159,,,0,2
3876,3876,"NOTRE-DAME/LABROSSE",,  45.481424, -75.640146,,,0,1
3877,3877,"GRÉBER/DUGAS",,  45.504887, -75.684024,,,0,2
3878,3878,"NOTRE-DAME/SAINT-ANDRÉ",,  45.481366, -75.642410,,,0,1
3880,3880,"NOTRE-DAME/NAPOLÉON-GROULX",,  45.481549, -75.643487,,,0,2
3882,3882,"NOTRE-DAME/FERNAND-ARVISAIS",,  45.481547, -75.645432,,,0,1
3885,3885,"NOTRE-DAME/FERNAND-ARVISAIS",,  45.482233, -75.646366,,,0,1
3886,3886,"NOTRE-DAME/JEAN-RENÉ-MONETTE",,  45.483257, -75.648587,,,0,1
3887,3887,"EAST/MALONEY",,  45.483841, -75.647030,,,0,1
3895,3895,"du BARRY/GRÉBER",,  45.481667, -75.702234,,,0,1
3896,3896,"de la GAPPE/GRÉBER",,  45.478441, -75.701705,,,0,1
3897,3897,"GRÉBER/de la GAPPE",,  45.477502, -75.700860,,,0,1
3898,3898,"de la GAPPE/de L'ALLIANCE",,  45.478434, -75.700066,,,0,1
3926,3926,"LABROSSE/des GÉRANIUMS",,  45.487263, -75.640188,,,0,1
3928,3928,"LABROSSE/des GÉRANIUMS",,  45.486895, -75.640323,,,0,1
3930,3930,"LABROSSE/CAVELIER-DE LA SALLE",,  45.489268, -75.640556,,,0,1
3932,3932,"LABROSSE/CAVALIER-DE LA SALLE",,  45.489503, -75.640814,,,0,1
3938,3938,"LABROSSE/SAINT-RENÉ EST",,  45.493719, -75.641349,,,0,2
3939,3939,"LABROSSE/SAINT-RENÉ EST",,  45.492413, -75.641321,,,0,1
3940,3940,"LABROSSE/GRANDE-ENTRÉE",,  45.494719, -75.641538,,,0,2
3941,3941,"LABROSSE/MARQUETTE",,  45.494728, -75.641692,,,0,1
3946,3946,"LABROSSE/de CANDIAC",,  45.498945, -75.642354,,,0,1
3948,3948,"LABROSSE/de CANDIAC",,  45.498947, -75.642137,,,0,2
3950,3950,"LABROSSE/DOCTEUR J.-COUSINEAU",,  45.502624, -75.642882,,,0,2
3951,3951,"la VÉRENDRYE EST/LABROSSE",,  45.500827, -75.643963,,,0,1
3953,3953,"la VÉRENDRYE EST/R.-H.-LALONDE",,  45.500869, -75.646674,,,0,2
3954,3954,"la VÉRENDRYE EST/MAIN",,  45.500535, -75.645949,,,0,2
3955,3955,"la VÉRENDRYE EST/MAIN",,  45.501154, -75.649675,,,0,1
3956,3956,"la VÉRENDRYE EST/R.H-LALONDE",,  45.500879, -75.648862,,,0,2
3960,3960,"la VÉRENDRYE EST/LABROSSE",,  45.500557, -75.643934,,,0,2
3990,3990,"Terminus Labrosse",,  45.490875, -75.643286,,,0,1
3993,3993,"Quai local LABROSSE #9",,  45.490816, -75.643553,,,0,1
3997,3997,"Quai local LABROSSE #8",,  45.490884, -75.642379,,,0,1
3998,3998,"Quai local LABROSSE #7",,  45.490822, -75.642660,,,0,1
4000,4000,"Parc-o-Bus Lorrain",,  45.495365, -75.608185,,,0,1
4001,4001,"Parc-o-Bus Lorrain",,  45.495150, -75.608076,,,0,1
4002,4002,"Parc-o-Bus Lorrain",,  45.494988, -75.607758,,,0,1
4003,4003,"Parc-o-Bus Lorrain",,  45.495184, -75.607865,,,0,1
4004,4004,"Parc-o-Bus Lorrain arrêt d'arrivée",,  45.495240, -75.608077,,,0,1
4006,4006,"SAINTE-ROSE/ROBERT-CORBETT",,  45.495423, -75.594677,,,0,1
4008,4008,"SAINTE-ROSE/ROBERT-CORBETT",,  45.495490, -75.595506,,,0,2
4010,4010,"SAINTE-ROSE/TURGEON",,  45.495230, -75.597248,,,0,2
4012,4012,"SAINTE-ROSE/CHIASSON",,  45.495279, -75.598252,,,0,1
4014,4014,"SAINTE-ROSE/JEAN-LÉPINE",,  45.494854, -75.600149,,,0,2
4016,4016,"SAINTE-ROSE/MITCHELL",,  45.494577, -75.601631,,,0,2
4018,4018,"SAINTE-ROSE/MONETTE",,  45.494199, -75.603004,,,0,2
4020,4020,"SAINTE-ROSE/SCHINGH",,  45.494112, -75.603684,,,0,2
4021,4021,"MITCHELL/DUMAIS",,  45.489146, -75.600900,,,0,2
4022,4022,"SAINTE-ROSE/LORRAIN",,  45.493713, -75.604988,,,0,2
4023,4023,"LORRAIN/de CALUMET",,  45.487998, -75.603045,,,0,1
4024,4024,"LORRAIN/DÉSY",,  45.489564, -75.602962,,,0,2
4026,4026,"LORRAIN/DÉSY",,  45.489528, -75.603074,,,0,1
4028,4028,"LORRAIN/SAINTE-ROSE",,  45.493768, -75.605940,,,0,1
4029,4029,"LORRAIN/SAINTE-ROSE",,  45.493200, -75.605164,,,0,1
4034,4034,"LORRAIN/SAINT-RENÉ EST",,  45.498818, -75.608090,,,0,1
4036,4036,"LORRAIN/SAINT-RENÉ EST",,  45.498772, -75.608229,,,0,2
4038,4038,"LORRAIN/VINCENT-LEGRIS",,  45.500267, -75.608458,,,0,2
4040,4040,"MALONEY EST/LORRAIN",,  45.487510, -75.602428,,,0,1
4050,4050,"LORRAIN/MARLENE-GOYET",,  45.501381, -75.608603,,,0,2
4052,4052,"LORRAIN/AUGUSTE-RENOIR",,  45.504341, -75.608933,,,0,1
4054,4054,"LORRAIN/AUGUSTE-RENOIR",,  45.504124, -75.609042,,,0,1
4056,4056,"LORRAIN/MARLENE-GOYET",,  45.501741, -75.608504,,,0,1
4058,4058,"LORRAIN/des FLEURS",,  45.505897, -75.609175,,,0,1
4060,4060,"LORRAIN/VINCENT-LEGRIS EST",,  45.499870, -75.608251,,,0,2
4108,4108,"MONTÉE PAIEMENT/JEAN-GARDY-BIENVENU",,  45.490042, -75.675441,,,0,2
4109,4109,"MONTÉE PAIEMENT/JEAN-GARDY-BIENVENU",,  45.489185, -75.674989,,,0,1
4111,4111,"MONTÉE PAIEMENT/GRAVELINE",,  45.486852, -75.674660,,,0,1
4115,4115,"MONTÉE PAIEMENT/SAINT-LUC",,  45.488117, -75.675094,,,0,2
4117,4117,"du CARREFOUR/MONTÉE PAIEMENT",,  45.486070, -75.677424,,,0,1
4126,4126,"MALONEY OUEST/ANDRÉ-MÉNARD",,  45.484676, -75.666351,,,0,2
4127,4127,"MALONEY OUEST/MONTÉE PAIEMENT",,  45.482924, -75.673496,,,0,1
4128,4128,"MALONEY OUEST/ANDRÉ-MÉNARD",,  45.484404, -75.666758,,,0,2
4130,4130,"MALONEY OUEST/SAINT-LOUIS",,  45.483713, -75.661669,,,0,1
4132,4132,"MALONEY OUEST/SAINT-LOUIS",,  45.483885, -75.663041,,,0,2
4134,4134,"MALONEY OUEST/LAUREL",,  45.483601, -75.654541,,,0,1
4138,4138,"MALONEY OUEST/ELM",,  45.483767, -75.652406,,,0,1
4139,4139,"MALONEY OUEST/OAK",,  45.483526, -75.653465,,,0,2
4141,4141,"MALONEY EST/BROADWAY",,  45.484065, -75.648941,,,0,1
4145,4145,"MALONEY EST/HAROLD",,  45.484380, -75.642901,,,0,1
4147,4147,"LABROSSE/MALONEY EST",,  45.485310, -75.639808,,,0,1
4149,4149,"MALONEY EST/LABROSSE",,  45.484589, -75.638836,,,0,1
4150,4150,"MALONEY EST/SABOURIN",,  45.484762, -75.633810,,,0,1
4151,4151,"de CÔTÉVILLE/DUBOIS",,  45.484084, -75.630058,,,0,1
4167,4167,"LORRAIN/de la VÉRENDRYE",,  45.506237, -75.609385,,,0,1
4202,4202,"CENTRE CADO",,  45.483728, -75.664821,,,0,2
4227,4227,"de CANNES/de SANARY",,  45.485073, -75.727049,,,0,2
4228,4228,"de CANNES/de SANARY",,  45.484969, -75.726917,,,0,1
4230,4230,"de CANNES/de RAYOL",,  45.488465, -75.724137,,,0,1
4231,4231,"de CANNES/de RAYOL",,  45.488059, -75.724039,,,0,2
4233,4233,"de CANNES/de SALERNES",,  45.486128, -75.723569,,,0,2
4234,4234,"de CANNES/de SALERNES",,  45.485948, -75.723541,,,0,1
4236,4236,"de CANNES/OSTER",,  45.493690, -75.741793,,,0,1
4237,4237,"de CANNES/OSTER",,  45.493571, -75.741992,,,0,1
4240,4240,"de CANNES/de CONTES",,  45.486292, -75.731239,,,0,2
4241,4241,"de CANNES/de MOUGINS",,  45.484917, -75.730003,,,0,1
4242,4242,"de CANNES/JUAN-LES-PINS",,  45.486192, -75.731343,,,0,1
4243,4243,"de CANNES/de MOUGINS",,  45.484966, -75.729798,,,0,2
4244,4244,"la VÉRENDRYE OUEST/Av. GATINEAU",,  45.489127, -75.719154,,,0,2
4245,4245,"la VÉRENDRYE OUEST/Av. GATINEAU",,  45.489219, -75.718746,,,0,2
4249,4249,"LEBAUDY/de CANNES",,  45.495449, -75.741535,,,0,1
4250,4250,"de CANNES/COLETTE",,  45.494641, -75.723834,,,0,2
4251,4251,"de CANNES/CÉLINE",,  45.494867, -75.723666,,,0,1
4253,4253,"de CANNES/la VÉRENDRYE OUEST",,  45.489924, -75.724081,,,0,1
4254,4254,"la VÉRENDRYE OUEST/Av. GATINEAU",,  45.489103, -75.719169,,,0,2
4255,4255,"la VÉRENDRYE OUEST/Av. GATINEAU",,  45.489232, -75.718768,,,0,2
4256,4256,"de CANNES/la VÉRENDRYE OUEST",,  45.489985, -75.724260,,,0,2
4273,4273,"LEBAUDY/le GALLOIS",,  45.498444, -75.740084,,,0,2
4275,4275,"CENTRE COMMUNAUTAIRE LIMBOUR",,  45.498682, -75.739752,,,0,1
4277,4277,"le GALLOIS/ÉMARD",,  45.499817, -75.736351,,,0,2
4278,4278,"le GALLOIS/ÉMARD",,  45.499890, -75.739207,,,0,2
4279,4279,"LEBAUDY/le LOUTRE",,  45.496188, -75.740925,,,0,2
4280,4280,"le GALLOIS/MAJOR",,  45.499645, -75.735288,,,0,1
4281,4281,"le GALLOIS/RATIER",,  45.499716, -75.738207,,,0,1
4282,4282,"LEBAUDY/le LOUTRE",,  45.496923, -75.740341,,,0,1
4285,4285,"de CANNES/LEBAUDY",,  45.494853, -75.742335,,,0,1
4288,4288,"LEBAUDY/de CANNES",,  45.495275, -75.742948,,,0,2
4289,4289,"des ÉRABLES/des SUCRES",,  45.498510, -75.751632,,,0,1
4294,4294,"LEBAUDY/PÈRE-BÉRIAULT",,  45.493177, -75.745858,,,0,1
4296,4296,"LEBAUDY/LE ROY",,  45.493137, -75.746058,,,0,2
4298,4298,"LEBAUDY/du PLATEAU-DU-RÉSERVOIR",,  45.490711, -75.747150,,,0,1
4300,4300,"LEBAUDY/du PLATEAU-BEAULIEU",,  45.490837, -75.747203,,,0,2
4301,4301,"SAINT-LOUIS/des ÉRABLES",,  45.492624, -75.753241,,,0,1
4302,4302,"le ROY/LEBAUDY",,  45.492836, -75.746312,,,0,2
4303,4303,"DAVIDSON/d'AOUST",,  45.507093, -75.657381,,,0,2
4304,4304,"le ROY/de la TERRASSE-DAVID EST",,  45.494162, -75.747951,,,0,2
4306,4306,"le ROY/de la TERRASSE-DAVID OUEST",,  45.494005, -75.747970,,,0,2
4307,4307,"le ROY/LEBEAUDY",,  45.492948, -75.746476,,,0,2
4308,4308,"du SOMMELIER/ISSLER",,  45.495518, -75.748951,,,0,2
4310,4310,"du SOMMELIER/ISSLER",,  45.495627, -75.748906,,,0,2
4312,4312,"du SOMMELIER/ISSLER",,  45.496894, -75.750022,,,0,2
4314,4314,"du SOMMELIER/des SOURCES",,  45.496758, -75.750250,,,0,2
4318,4318,"des ÉRABLES/du SOMMELIER",,  45.498492, -75.751443,,,0,2
4319,4319,"des ÉRABLES/SAINT-ALEXANDRE",,  45.493790, -75.753256,,,0,1
4321,4321,"des ÉRABLES/SAINT-ALEXANDRE",,  45.497302, -75.752521,,,0,2
4323,4323,"des ÉRABLES/SAINT-ALEXANDRE",,  45.496965, -75.752854,,,0,1
4330,4330,"du MONT-LUC/de CANNES",,  45.493599, -75.723537,,,0,1
4338,4338,"LABROSSE/DOCTEUR J.-COUSINEAU",,  45.502445, -75.642663,,,0,1
4339,4339,"de CANNES/STÉPHANE",,  45.497608, -75.724105,,,0,2
4340,4340,"de CANNES/STÉPHANE",,  45.497659, -75.724304,,,0,2
4341,4341,"la VÉRENDRYE OUEST/GUINDON",,  45.497062, -75.664795,,,0,1
4343,4343,"la VÉRENDRYE OUEST/PAQUETTE",,  45.500571, -75.657310,,,0,1
4344,4344,"la VÉRENDRYE OUEST/PAQUETTE",,  45.500320, -75.657180,,,0,2
4345,4345,"de CANNES/de la PLAINE",,  45.498906, -75.724232,,,0,2
4346,4346,"de CANNES/de la PLAINE",,  45.499480, -75.725315,,,0,1
4349,4349,"la VÉRENDRYE OUEST/ MAIN",,  45.500860, -75.653909,,,0,1
4350,4350,"la VÉRENDRYE EST/MAIN",,  45.500697, -75.652227,,,0,2
4351,4351,"de CANNES/de SAINT-VALLIER",,  45.492339, -75.723601,,,0,2
4352,4352,"de CANNES/de CAVAILLON",,  45.491789, -75.723375,,,0,1
4353,4353,"le GALLOIS/JOBIN",,  45.499609, -75.733343,,,0,1
4354,4354,"le GALLOIS/JOBIN",,  45.499748, -75.733284,,,0,2
4355,4355,"le GALLOIS/de la PLAINE",,  45.499562, -75.728567,,,0,2
4356,4356,"le GALLOIS/de la PLAINE",,  45.499670, -75.728260,,,0,2
4357,4357,"de NEUVILLE/de l'HERMITAGE",,  45.535565, -75.484183,,,0,2
4358,4358,"de l'HÔPITAL/de TOULOUSE",,  45.491065, -75.689120,,,0,1
4360,4360,"de l'HÔPITAL/SAINT-RENÉ OUEST",,  45.490484, -75.688713,,,0,2
4361,4361,"de l'AÉROPORT/ATMEC",,  45.510917, -75.562067,,,0,2
4362,4362,"de la GAPPE/de la CITÉ",,  45.483799, -75.682298,,,0,1
4363,4363,"de l'AÉROPORT/PIERRE-MÉNARD",,  45.507681, -75.561683,,,0,2
4367,4367,"de NEUVILLE/ de L'HERMITAGE",,  45.535681, -75.484742,,,0,1
4370,4370,"MALONEY EST/du VIEUX-PORT",,  45.502499, -75.564326,,,0,2
4371,4371,"MALONEY EST/du VIEUX-PORT",,  45.502482, -75.564210,,,0,2
4378,4378,"MALONEY EST/de l'AÉROPORT",,  45.504342, -75.561826,,,0,2
4379,4379,"MALONEY EST/de l'AÉROPORT",,  45.504033, -75.561817,,,0,2
4380,4380,"GRÉBER/BIENVENUE",,  45.483924, -75.701826,,,0,1
4381,4381,"GRÉBER/BIENVENUE",,  45.484235, -75.702118,,,0,2
4384,4384,"GRÉBER/NELLIGAN",,  45.485989, -75.702403,,,0,2
4385,4385,"ERNEST-GABOURY/SAINT-RENÉ OUEST",,  45.489170, -75.697642,,,0,1
4386,4386,"DAVIDSON/DESFORGES",,  45.507113, -75.659351,,,0,2
4388,4388,"de l'AÉROPORT/JEAN-LOUIS-MALETTE",,  45.505943, -75.561403,,,0,2
4389,4389,"DAVIDSON/de LANGELIER",,  45.507347, -75.655780,,,0,2
4392,4392,"MONTÉE PAIEMENT/LAHAIE",,  45.500017, -75.676418,,,0,1
4393,4393,"DAVIDSON/LARCHER",,  45.507980, -75.647246,,,0,2
4394,4394,"DAVIDSON/LARCHER",,  45.507957, -75.646095,,,0,1
4395,4395,"DAVIDSON/MAIN",,  45.507491, -75.651572,,,0,2
4396,4396,"DAVIDSON/MAIN",,  45.507541, -75.653016,,,0,2
4397,4397,"DAVIDSON/de LANGELIER",,  45.507303, -75.654517,,,0,2
4398,4398,"DAVIDSON/P.-LABINE",,  45.507659, -75.649353,,,0,2
4399,4399,"DAVIDSON/MINGAN",,  45.507761, -75.649854,,,0,2
4401,4401,"DAVIDSON/LABROSSE",,  45.508239, -75.643126,,,0,1
4402,4402,"DAVIDSON/LABROSSE",,  45.508297, -75.644138,,,0,2
4403,4403,"ERNEST-GABOURY/NELLIGAN",,  45.487158, -75.697363,,,0,1
4404,4404,"LABROSSE/A.-GIBEAULT",,  45.505079, -75.643269,,,0,2
4405,4405,"LABROSSE/A.-GIBEAULT",,  45.505031, -75.643060,,,0,1
4406,4406,"DAVIDSON/de CASTAGNIER",,  45.508700, -75.640404,,,0,2
4407,4407,"DAVIDSON/de CASTAGNIER",,  45.508589, -75.640134,,,0,2
4408,4408,"DAVIDSON/de DUPARQUET",,  45.508452, -75.637369,,,0,2
4409,4409,"DAVIDSON/de DUPARQUET",,  45.508626, -75.638090,,,0,2
4410,4410,"DAVIDSON/A.-GIBEAULT",,  45.506719, -75.636464,,,0,2
4411,4411,"DAVIDSON/A.-GIBEAULT",,  45.505948, -75.636604,,,0,2
4412,4412,"DAVIDSON/de CHARNY",,  45.502852, -75.635870,,,0,2
4413,4413,"DAVIDSON/de CHARNY",,  45.503031, -75.636090,,,0,2
4414,4414,"la VÉRENDRYE EST/de CANDIAC",,  45.501123, -75.639230,,,0,2
4415,4415,"la VÉRENDRYE EST/de CANDIAC",,  45.501250, -75.639196,,,0,1
4416,4416,"de NEUVILLE/de BEAUJEU",,  45.534070, -75.488835,,,0,2
4417,4417,"de NEUVILLE/de POMEROL",,  45.534757, -75.487014,,,0,2
4418,4418,"de NEUVILLE/de MARGAUX",,  45.533159, -75.490647,,,0,2
4419,4419,"de NEUVILLE/de MARGAUX",,  45.533123, -75.490362,,,0,2
4426,4426,"DAVIDSON/la VÉRENDRYE",,  45.502018, -75.635797,,,0,2
4427,4427,"LORRAIN/BEAUCHAMP",,  45.491327, -75.603465,,,0,2
4428,4428,"LORRAIN/BEAUCHAMP",,  45.491361, -75.603669,,,0,1
4429,4429,"DAVIDSON/la VÉRENDRYE EST",,  45.501532, -75.635511,,,0,2
4434,4434,"de l'HÔPITAL/PAUL-DAVID",,  45.495057, -75.689351,,,0,2
4435,4435,"de l'HÔPITAL/PAUL-DAVID",,  45.494547, -75.689463,,,0,1
4436,4436,"MALONEY EST/CAMILLE",,  45.495608, -75.576172,,,0,2
4437,4437,"MALONEY EST/CAMILLE",,  45.495326, -75.576451,,,0,2
4439,4439,"MALONEY EST/de PÉLISSIER",,  45.497690, -75.572136,,,0,2
4440,4440,"MALONEY EST/de PÉLISSIER",,  45.497429, -75.572336,,,0,2
4441,4441,"de NEUVILLE/de CHAVILLE",,  45.530824, -75.494838,,,0,2
4442,4442,"MALONEY EST/de LAVERDIÈRE",,  45.499786, -75.568638,,,0,2
4443,4443,"MALONEY EST/de LAVERDIÈRE",,  45.499279, -75.569221,,,0,2
4444,4444,"HÔPITAL DE GATINEAU",,  45.492934, -75.688870,,,0,2
4445,4445,"MALONEY EST/de la FLEUR-DE-LYS",,  45.501039, -75.566436,,,0,2
4446,4446,"MALONEY EST/de la FLEUR-DE-LYS",,  45.501611, -75.565443,,,0,2
4447,4447,"LABROSSE/DAVIDSON",,  45.507804, -75.643684,,,0,1
4448,4448,"LABROSSE/DAVIDSON",,  45.507911, -75.643512,,,0,2
4450,4450,"HÔPITAL DE GATINEAU",,  45.492686, -75.689013,,,0,1
4451,4451,"de l'HÔPITAL/de l'OASIS",,  45.493271, -75.689310,,,0,1
4452,4452,"de l'HÔPITAL/du MONT-ROYAL",,  45.497048, -75.689907,,,0,2
4453,4453,"de l'HÔPITAL/du MONT-ROYAL",,  45.496417, -75.690014,,,0,1
4454,4454,"LORRAIN/JEAN-MARC",,  45.518481, -75.614367,,,0,2
4455,4455,"LORRAIN/JEAN-MARC",,  45.518487, -75.614706,,,0,2
4456,4456,"du BARRY/GRÉBER",,  45.481547, -75.702105,,,0,1
4458,4458,"ERNEST-GABOURY/du MONT-ROYAL",,  45.495747, -75.696687,,,0,1
4459,4459,"ERNEST-GABOURY/du MONT-ROYAL",,  45.495947, -75.696540,,,0,2
4460,4460,"ERNEST-GABOURY/ALBERT-EINSTEIN",,  45.494398, -75.696504,,,0,2
4461,4461,"ERNEST-GABOURY/ALBERT-EINSTEIN",,  45.494399, -75.696312,,,0,2
4462,4462,"ERNEST-GABOURY/de GRONDINES",,  45.492778, -75.696433,,,0,1
4463,4463,"ERNEST-GABOURY/de GRONDINES",,  45.492598, -75.696367,,,0,2
4464,4464,"ERNEST-GABOURY/de MORENCY",,  45.491461, -75.697973,,,0,2
4465,4465,"ERNEST-GABOURY/de MORENCY",,  45.491410, -75.697801,,,0,2
4468,4468,"ERNEST-GABOURY/JEAN-PERRIN",,  45.498494, -75.697064,,,0,2
4469,4469,"ERNEST-GABOURY/JEAN-PERRIN",,  45.498446, -75.696861,,,0,1
4470,4470,"de la CÔTE-DES-NEIGES/ERNEST-GABOURY",,  45.500456, -75.695850,,,0,2
4471,4471,"de la CÔTE-DES-NEIGES/ERNEST-GABOURY",,  45.500351, -75.695978,,,0,1
4472,4472,"de la CÔTE-DES-NEIGES/de la BRUNANTE",,  45.499992, -75.694192,,,0,2
4473,4473,"de la CÔTE-DES-NEIGES/de la BRUNANTE",,  45.499946, -75.694517,,,0,1
4474,4474,"de la CÔTE-DES-NEIGES/de la CHÂTELAINE",,  45.498924, -75.692285,,,0,2
4475,4475,"de la CÔTE-DES-NEIGES/de la CHÂTELAINE",,  45.498746, -75.691937,,,0,1
4476,4476,"LORRAIN/des POMMETIERS",,  45.516573, -75.612287,,,0,2
4477,4477,"LORRAIN/des POMMETIERS",,  45.516473, -75.612453,,,0,2
4478,4478,"LORRAIN/CROTEAU",,  45.520449, -75.618943,,,0,2
4479,4479,"LORRAIN / CROTEAU",,  45.519962, -75.618137,,,0,2
4480,4480,"LORRAIN/THÉRÈSE",,  45.523122, -75.624587,,,0,2
4481,4481,"LORRAIN/THÉRÈSE",,  45.522398, -75.623859,,,0,2
4485,4485,"SAINT-THOMAS/de SAINTE-MONIQUE",,  45.529427, -75.632046,,,0,2
4486,4486,"ELZÉAR/de CHAMBORD",,  45.524466, -75.643423,,,0,2
4487,4487,"SAINT-THOMAS/d'ARVIDA",,  45.532472, -75.634693,,,0,2
4488,4488,"ELZÉAR/IRÈNE",,  45.528750, -75.644078,,,0,2
4489,4489,"SAINT-THOMAS/d'ALMA",,  45.532062, -75.639718,,,0,2
4490,4490,"SAINT-THOMAS/ELZÉAR",,  45.531595, -75.643878,,,0,2
4492,4492,"SAINT-THOMAS/d'ALMA",,  45.531964, -75.639749,,,0,2
4493,4493,"SAINT-THOMAS/ELZÉAR",,  45.531701, -75.643841,,,0,2
4494,4494,"SAINT-THOMAS/d'ARVIDA",,  45.532421, -75.634619,,,0,2
4495,4495,"ELZÉAR/IRÈNE",,  45.528731, -75.644217,,,0,2
4496,4496,"SAINT-THOMAS/de SAINTE-MONIQUE",,  45.529360, -75.632174,,,0,2
4497,4497,"ELZÉAR/de CHAMBORD",,  45.524412, -75.643489,,,0,2
4502,4502,"de CHAMBORD/LORRAIN",,  45.525322, -75.627211,,,0,2
4503,4503,"de CHAMBORD/de ROBERVAL",,  45.525425, -75.626847,,,0,2
4505,4505,"DE SAINTE-MONIQUE/DE CHAMBORD",,  45.525405, -75.631964,,,0,2
4511,4511,"de CHAMBORD/de SAINTE-MONIQUE",,  45.524966, -75.631310,,,0,2
4515,4515,"des ÉRABLES/SAINT-ALEXANDRE",,  45.493559, -75.752952,,,0,1
4522,4522,"AV. DE BUCKINGHAM/ODILE-DAOUST",,  45.557708, -75.421131,,,0,2
4524,4524,"AV. DE BUCKINGHAM/ODILE-DAOUST",,  45.556886, -75.421945,,,0,2
4525,4525,"LÉPINE/Av. de BUCKINGHAM",,  45.574972, -75.412186,,,0,1
4526,4526,"Av. de BUCKINGHAM/LÉPINE",,  45.575705, -75.412845,,,0,2
4527,4527,"LÉPINE/Av. de BUCKINGHAM",,  45.574815, -75.412376,,,0,2
4528,4528,"Av. de BUCKINGHAM/LÉPINE",,  45.575704, -75.413012,,,0,2
4530,4530,"Av. de BUCKINGHAM/CHURCHILL",,  45.577498, -75.412658,,,0,2
4532,4532,"Av. de BUCKINGHAM/CHURCHILL",,  45.578049, -75.412774,,,0,2
4534,4534,"Av. de BUCKINGHAM/CHURCHILL",,  45.579486, -75.412450,,,0,2
4536,4536,"Av. de BUCKINGHAM/CHURCHILL",,  45.579900, -75.412530,,,0,2
4538,4538,"JOHN-F.-KENNEDY/Av. de BUCKINGHAM",,  45.581828, -75.412121,,,0,2
4540,4540,"JOHN-F.-KENNEDY/Av. de BUCKINGHAM",,  45.582008, -75.412045,,,0,1
4542,4542,"JOHN-F.-KENNEDY/BÉLANGER",,  45.583097, -75.409566,,,0,1
4544,4544,"JOHN-F.-KENNEDY/BÉLANGER",,  45.583039, -75.409436,,,0,2
4551,4551,"DOLLARD/CHURCH",,  45.584723, -75.408053,,,0,1
4552,4552,"CHURCH/DOLLARD",,  45.584995, -75.407427,,,0,2
4553,4553,"CHURCH/CURÉ-BRADY",,  45.584914, -75.405467,,,0,2
4554,4554,"CHURCH/LAFRAMBOISE",,  45.585185, -75.404518,,,0,2
4556,4556,"CHURCH/MACLAREN EST",,  45.585374, -75.402071,,,0,2
4557,4557,"MACLAREN EST/CHURCH",,  45.585664, -75.401624,,,0,2
4558,4558,"MACLAREN EST/BREWER",,  45.587441, -75.403073,,,0,2
4559,4559,"DÉPART ÉCOLE SECONDAIRE HORMISDAS-GAMELIN",,  45.587028, -75.399088,,,0,1
4560,4560,"MACLAREN EST/BREWER",,  45.586903, -75.402428,,,0,2
4561,4561,"ÉCOLE SECONDAIRE HORMISDAS-GAMELIN arrivée",,  45.586948, -75.399027,,,0,1
4562,4562,"MACLAREN EST/BREWER",,  45.588872, -75.405544,,,0,2
4563,4563,"MACLAREN/CHURCH",,  45.585107, -75.401338,,,0,2
4564,4564,"MACLAREN EST/BREWER",,  45.588693, -75.405402,,,0,2
4565,4565,"MACLAREN/SAUVÉ",,  45.583758, -75.400777,,,0,1
4566,4566,"MACLAREN EST/PAUL",,  45.588685, -75.407697,,,0,2
4567,4567,"MACLAREN/WILLIAM-KELLY",,  45.581719, -75.400296,,,0,1
4568,4568,"MACLAREN EST/PAUL",,  45.588596, -75.407171,,,0,2
4569,4569,"MACLAREN/MOISE-GAUTHIER",,  45.581448, -75.400410,,,0,1
4570,4570,"MACLAREN EST/JAMES",,  45.588396, -75.410400,,,0,2
4571,4571,"MACLAREN/SAUVÉ",,  45.583849, -75.400560,,,0,1
4572,4572,"MACLAREN EST/JAMES",,  45.588274, -75.410554,,,0,2
4573,4573,"MACLAREN/ELISABETH-CHAUVIN",,  45.579951, -75.400763,,,0,1
4574,4574,"BÉLANGER/MACLAREN EST",,  45.588306, -75.412963,,,0,1
4575,4575,"MACLAREN EST/BÉLANGER",,  45.588253, -75.412188,,,0,1
4576,4576,"BÉLANGER/JOSEPH",,  45.589745, -75.413243,,,0,2
4577,4577,"MACLAREN/ELISABETH-CHAUVIN",,  45.579951, -75.400712,,,0,1
4578,4578,"BÉLANGER/JOSEPH",,  45.589206, -75.412944,,,0,2
4579,4579,"MACLAREN/ALPHONSE-LABELLE",,  45.577894, -75.401369,,,0,1
4580,4580,"BÉLANGER/ROSS",,  45.592083, -75.413696,,,0,1
4581,4581,"MACLAREN EST/ALPHONSE-LABELLE",,  45.577951, -75.401210,,,0,1
4582,4582,"BÉLANGER/JEAN-XXIII",,  45.592650, -75.413687,,,0,1
4584,4584,"JEAN-XXIII/des PINS",,  45.592916, -75.415689,,,0,2
4585,4585,"MACLAREN/LÉPINE",,  45.576332, -75.400968,,,0,2
4586,4586,"JEAN-XXIII/des PINS",,  45.592796, -75.415804,,,0,2
4588,4588,"Av. de BUCKINGHAM/JEAN-XXIII",,  45.592069, -75.417678,,,0,2
4589,4589,"LÉPINE/MACLAREN EST",,  45.575556, -75.400368,,,0,2
4590,4590,"Av. de BUCKINGHAM/JEAN-XXIII",,  45.591467, -75.417461,,,0,2
4592,4592,"LÉPINE/DES BERNACHES",,  45.576412, -75.390856,,,0,2
4594,4594,"Av. de BUCKINGHAM/JOSEPH",,  45.588562, -75.416824,,,0,1
4595,4595,"LÉPINE/DOLLARD",,  45.575180, -75.408419,,,0,1
4596,4596,"Av. de BUCKINGHAM/LEFEBVRE",,  45.589833, -75.417284,,,0,1
4597,4597,"LÉPINE/DOLLARD",,  45.575071, -75.407443,,,0,2
4598,4598,"Av. de BUCKINGHAM/MACLAREN",,  45.587301, -75.416904,,,0,1
4599,4599,"LÉPINE/MACLAREN EST",,  45.575612, -75.401506,,,0,1
4600,4600,"MACLAREN OUEST/GEORGES",,  45.586205, -75.421203,,,0,2
4602,4602,"MACLAREN OUEST/GEORGES",,  45.586257, -75.421909,,,0,2
4604,4604,"KENNY/MACLAREN",,  45.586555, -75.424013,,,0,2
4606,4606,"KENNY/MACLAREN",,  45.586295, -75.423998,,,0,2
4608,4608,"KENNY/SPENCER",,  45.585022, -75.424861,,,0,2
4610,4610,"KENNY/SPENCER",,  45.584571, -75.425037,,,0,2
4611,4611,"KENNY/BRIDGE",,  45.583037, -75.425961,,,0,2
4612,4612,"KENNY/BRIDGE",,  45.582942, -75.426156,,,0,2
4614,4614,"BERGERON/BRIDGE",,  45.582415, -75.423944,,,0,1
4616,4616,"BERGERON/BRIDGE",,  45.582320, -75.424122,,,0,2
4618,4618,"BERGERON/GÉRARD-GAUTHIER",,  45.580074, -75.424131,,,0,2
4620,4620,"BERGERON/GÉRARD-GAUTHIER",,  45.580048, -75.423954,,,0,1
4622,4622,"l'ABBÉ/BERGERON",,  45.578452, -75.424632,,,0,2
4624,4624,"l'ABBÉ/BERGERON",,  45.578643, -75.423992,,,0,1
4627,4627,"CURÉ-ROY/L'ABBÉ",,  45.577902, -75.427140,,,0,2
4629,4629,"CURÉ-ROY/L'ABBÉ",,  45.577993, -75.426935,,,0,2
4631,4631,"CURÉ-ROY/PIERRE-LAPORTE",,  45.574482, -75.427139,,,0,2
4633,4633,"CURÉ-ROY/ELZÉAR-LAFLEUR",,  45.575205, -75.426933,,,0,2
4636,4636,"BERTRAND/CHARETTE",,  45.568172, -75.429603,,,0,2
4638,4638,"BERTRAND/ARTHUR-GRATTON",,  45.568454, -75.426286,,,0,2
4640,4640,"BERTRAND/ARTHUR-GRATTON",,  45.568274, -75.426464,,,0,2
4642,4642,"PIERRE-LAPORTE/ARTHUR-GRATTON",,  45.573972, -75.428593,,,0,2
4643,4643,"GEORGES/CARDINAL",,  45.567741, -75.424384,,,0,2
4644,4644,"GEORGES/CARDINAL",,  45.567832, -75.424257,,,0,2
4646,4646,"GEORGES/DAMIEN-CHARRON",,  45.564948, -75.425260,,,0,2
4648,4648,"GEORGES/DAMIEN-CHARRON",,  45.564948, -75.425081,,,0,2
4650,4650,"PARC-O-BUS GEORGES/FOUCAULT",,  45.562594, -75.426883,,,0,1
4652,4652,"PARC-O-BUS GEORGES/FOUCAULT",,  45.563098, -75.426275,,,0,2
4654,4654,"CHARETTE/RACAN",,  45.569519, -75.430395,,,0,2
4656,4656,"CHARETTE/DIOTTE",,  45.569188, -75.430493,,,0,2
4658,4658,"CHARETTE/BOULADIER",,  45.571823, -75.431011,,,0,2
4660,4660,"CHARETTE/BOULADIER",,  45.571928, -75.431196,,,0,2
4661,4661,"CHARETTE/PIERRE-LAPORTE",,  45.573565, -75.431605,,,0,2
4662,4662,"PIERRE-LAPORTE/ALBERT-FILLION",,  45.573984, -75.430417,,,0,2
4664,4664,"PIERRE-LAPORTE/ALBERT-FILLION",,  45.573811, -75.431050,,,0,2
4665,4665,"FORTERESSE/des HAUTS-BOIS",,  45.528355, -75.482791,,,0,1
4666,4666,"FORTERESSE/des HAUTS-BOIS",,  45.527698, -75.482635,,,0,2
4667,4667,"FORTERESSE/du CHÂTELET",,  45.530254, -75.482731,,,0,1
4668,4668,"FORTERESSE/du CHÂTELET",,  45.530199, -75.482935,,,0,2
4669,4669,"FORTERESSE/TROIS-MOULINS",,  45.532764, -75.483111,,,0,1
4670,4670,"FORTERESSE/TROIS-MOULINS",,  45.532673, -75.483289,,,0,2
4671,4671,"FORTERESSE/de NEUVILLE",,  45.535193, -75.483439,,,0,1
4681,4681,"des AFFAIRES/des ENTREPRISES",,  45.513782, -75.654213,,,0,2
4683,4683,"des AFFAIRES/LABROSSE",,  45.514471, -75.646098,,,0,2
4684,4684,"des AFFAIRES/LABROSSE",,  45.514814, -75.646264,,,0,2
4689,4689,"LÉPINE/FINDLAY",,  45.575772, -75.398030,,,0,2
4690,4690,"LÉPINE/FINDLAY",,  45.575899, -75.398311,,,0,1
4691,4691,"des AFFAIRES/des ENTREPRISES",,  45.513837, -75.654223,,,0,2
4693,4693,"des AFFAIRES/LABROSSE",,  45.514577, -75.646104,,,0,2
4694,4694,"des AFFAIRES/LABROSSE",,  45.514783, -75.646260,,,0,2
4700,4700,"du PROGRÈS/de LORRAINE",,  45.523628, -75.493674,,,0,2
4701,4701,"ROUTE 148/des HAUTS-BOIS",,  45.527851, -75.477816,,,0,1
4702,4702,"du PROGRÈS/de LORRAINE",,  45.523447, -75.493787,,,0,2
4703,4703,"de la FORTERESSE/ROUTE 148",,  45.526515, -75.481444,,,0,1
4704,4704,"du PROGRÈS/de LIESSE",,  45.524015, -75.491590,,,0,2
4705,4705,"PARC-O-BUS GEORGES/ROUTE 148",,  45.542107, -75.431377,,,0,2
4706,4706,"du PROGRÈS/de LIESSE",,  45.524113, -75.491743,,,0,1
4707,4707,"ROUTE 148/des HAUTS-BOIS",,  45.527770, -75.477733,,,0,2
4709,4709,"des LAURENTIDES/du PROGRÈS",,  45.522898, -75.495908,,,0,2
4711,4711,"des LAURENTIDES/du PROGRÈS",,  45.522899, -75.495729,,,0,2
4712,4712,"des LAURENTIDES/de GRANDPRÉ",,  45.526677, -75.496146,,,0,2
4713,4713,"du PROGRÈS/YVON-PICHETTE",,  45.524824, -75.488220,,,0,2
4714,4714,"des LAURENTIDES/de GRANDPRÉ",,  45.526556, -75.495991,,,0,2
4716,4716,"PARC-O-BUS GEORGES/ROUTE 148",,  45.542242, -75.431353,,,0,1
4717,4717,"du PROGRÈS/LAURETTE-ROUTHIER",,  45.525378, -75.485689,,,0,2
4718,4718,"PARC-O-BUS GEORGES/ROUTE 148",,  45.542423, -75.431200,,,0,1
4719,4719,"du PROGRÈS/LAURETTE-ROUTHIER",,  45.525297, -75.485490,,,0,2
4720,4720,"du PROGRÈS/de LIESSE",,  45.524377, -75.489907,,,0,2
4721,4721,"du PROGRÈS/LAURETTE-ROUTHIER",,  45.526094, -75.483739,,,0,2
4723,4723,"du PROGRÈS/LAURETTE-ROUTHIER",,  45.526147, -75.483400,,,0,2
4724,4724,"ROUTE 148/de MASSON nord",,  45.545340, -75.421436,,,0,1
4725,4725,"ROUTE 148/de MASSON sud",,  45.545251, -75.421192,,,0,1
4726,4726,"de MASSON/SAINT-CHARLES",,  45.546735, -75.421624,,,0,2
4727,4727,"de la FORTERESSE/ROUTE 148",,  45.526470, -75.481623,,,0,2
4728,4728,"de MASSON/SAINT-CHARLES",,  45.546419, -75.421700,,,0,2
4729,4729,"ROUTE 148/de la FORTERESSE",,  45.526433, -75.480745,,,0,1
4730,4730,"de MASSON/des CHUTES-RHÉAUME",,  45.548216, -75.422559,,,0,2
4731,4731,"ROUTE 148/ des BALBUZARDS",,  45.524140, -75.485990,,,0,2
4732,4732,"de MASSON/des CHUTES-RHÉAUME",,  45.548287, -75.422713,,,0,2
4733,4733,"ROUTE 148/ de SAINT-MARIN",,  45.523563, -75.488050,,,0,2
4734,4734,"GEORGES/FOUCAULT",,  45.561338, -75.427898,,,0,2
4735,4735,"ROUTE 148/du RUISSEAU",,  45.522625, -75.492381,,,0,2
4736,4736,"GEORGES/FOUCAULT",,  45.561609, -75.427490,,,0,2
4737,4737,"ROUTE 148/des LAURENTIDES",,  45.522130, -75.494837,,,0,2
4741,4741,"GEORGES/de l'ÉCORCE",,  45.558961, -75.429365,,,0,2
4742,4742,"GEORGES/des LIARDS",,  45.558991, -75.429533,,,0,2
4744,4744,"GEORGES/de l'ÉCORCE",,  45.556948, -75.434387,,,0,2
4745,4745,"GEORGES/de l'ÉCORCE",,  45.557028, -75.434473,,,0,2
4746,4746,"GEORGES/des LIARDS",,  45.555514, -75.435634,,,0,2
4747,4747,"GEORGES/FILION",,  45.554859, -75.435821,,,0,2
4749,4749,"de NEUVILLE/de CHAVILLE",,  45.531031, -75.494648,,,0,2
4750,4750,"ENCAN de MASSON",,  45.553296, -75.435870,,,0,1
4752,4752,"ENCAN de MASSON",,  45.553477, -75.435718,,,0,1
4754,4754,"GEORGES/JEAN-BAPTISTE-ROUTHIER",,  45.545267, -75.431174,,,0,2
4755,4755,"GEORGES/JEAN-BAPTISTE-ROUTHIER",,  45.545753, -75.431162,,,0,2
4759,4759,"ROUTE 148/des LAURENTIDES",,  45.522066, -75.494591,,,0,2
4760,4760,"ROUTE 148/NAPOLÉON",,  45.544046, -75.416742,,,0,2
4761,4761,"ROUTE 148/du RUISSEAU",,  45.522529, -75.492417,,,0,2
4762,4762,"ROUTE 148/NAPOLÉON",,  45.543825, -75.417172,,,0,2
4763,4763,"ROUTE 148/ de SAINT-MARIN",,  45.523416, -75.488203,,,0,2
4764,4764,"ROUTE 148/NAPOLÉON",,  45.544681, -75.414282,,,0,2
4765,4765,"ROUTE 148/DANIEL-KELLY",,  45.545291, -75.411813,,,0,2
4766,4766,"ROUTE 148/GUY-DUBUC",,  45.544647, -75.413886,,,0,2
4767,4767,"ROUTE 148/DANIEL-KELLY",,  45.545340, -75.411242,,,0,2
4768,4768,"ROUTE 148/OLIVIER-PAGÉ",,  45.545968, -75.409098,,,0,2
4769,4769,"ROUTE 148/ des BALBUZARDS",,  45.524016, -75.485949,,,0,2
4770,4770,"ROUTE 148/LOMBARD",,  45.546145, -75.408004,,,0,2
4771,4771,"ROUTE 148/de la FORTERESSE",,  45.526305, -75.480622,,,0,2
4772,4772,"de l'ARÉNA/LOMBARD",,  45.546826, -75.408611,,,0,2
4773,4773,"de l'ARÉNA/LOMBARD arrivée",,  45.546862, -75.408624,,,0,2
4774,4774,"des LAURENTIDES/de NEUVILLE",,  45.529916, -75.496469,,,0,2
4776,4776,"des LAURENTIDES/de NEUVILLE",,  45.530113, -75.496689,,,0,2
5003,5003,"KING EDWARD/ST-PATRICK",,  45.433019, -75.689613,,,0,1
5008,5008,"KING EDWARD/YORK",,  45.430131, -75.687173,,,0,1
5014,5014,"RIDEAU/CUMBERLAND",,  45.428474, -75.686716,,,0,1
5048,5048,"WELLINGTON/LYON",,  45.420256, -75.705213,,,0,1
5050,5050,"WELLINGTON/LYON",,  45.420377, -75.705476,,,0,1
5063,5063,"COLOMBINE/HOLLAND",,  45.407627, -75.739268,,,0,2
5080,5080,"TUNNEY'S PASTURE/YARROW",,  45.404545, -75.735172,,,0,1
5082,5082,"TUNNEY'S PASTURE/SORREL",,  45.405853, -75.735233,,,0,1
5083,5083,"COLOMBINE/CHARDON",,  45.407503, -75.738771,,,0,2
5085,5085,"TUNNEY'S PASTURE",,  45.407731, -75.737059,,,0,2
5086,5086,"TUNNEY'S PASTURE",,  45.407736, -75.736382,,,0,2
5090,5090,"TUNNEY'S PASTURE/YARROW",,  45.404537, -75.735200,,,0,1
5108,5108,"BANK/QUEEN",,  45.420639, -75.700981,,,0,1
5109,5109,"BANK/QUEEN",,  45.420634, -75.700953,,,0,1
5112,5112,"STATION LYON",,  45.419229, -75.705214,,,0,1
5113,5113,"STATION LYON",,  45.419239, -75.705190,,,0,1
5116,5116,"STATION LYON",,  45.418250, -75.704597,,,0,1
5117,5117,"STATION LYON",,  45.418238, -75.704626,,,0,1
5120,5120,"SLATER/KENT",,  45.417996, -75.702683,,,0,1
5121,5121,"SLATER/KENT",,  45.417977, -75.702665,,,0,1
5124,5124,"BANK/WELLINGTON",,  45.421569, -75.701622,,,0,1
5125,5125,"BANK/WELLINGTON",,  45.421585, -75.701579,,,0,1
5128,5128,"SLATER/O'CONNOR",,  45.419831, -75.698410,,,0,1
5130,5130,"ALBERT/BANK",,  45.420075, -75.700170,,,0,1
5131,5131,"KENT / SPARKS",,  45.420210, -75.703261,,,0,1
5132,5132,"SLATER/METCALFE",,  45.421389, -75.694823,,,0,1
5134,5134,"ALBERT/METCALFE",,  45.421775, -75.696261,,,0,1
5136,5136,"CENTRE RIDEAU",,  45.424111, -75.689429,,,0,1
5138,5138,"CENTRE RIDEAU",,  45.424147, -75.689977,,,0,1
5503,5503,"PONT ALONZO WRIGHT/ROUTE 105",,  45.483884, -75.750579,,,0,2
5767,5767,"PINK/de la SAPINIÈRE",,  45.445338, -75.773871,,,0,1
5769,5769,"PINK/de la SAPINIÈRE",,  45.445193, -75.772759,,,0,1
6300,6300,"des ÉRABLES/TACHÉ",,  45.522355, -75.740522,,,0,2
6301,6301,"des ÉRABLES/TACHÉ",,  45.522346, -75.740676,,,0,2
7050,7050,"ARRÊT DE COURTOISIE Érables/Tire",,  45.502430, -75.744540,,,0,2
7051,7051,"ARRÊT DE COURTOISIE Érables/Tire",,  45.502377, -75.744360,,,0,2
7052,7052,"ARRÊT DE COURTOISIE Érables/Sucrerie",,  45.507737, -75.739541,,,0,2
7053,7053,"ARRÊT DE COURTOISIE Érables/Sucrerie",,  45.507684, -75.739309,,,0,2
7054,7054,"ARRÊT DE COURTOISIE Érables/Fleurimont",,  45.516150, -75.740048,,,0,2
7055,7055,"ARRÊT DE COURTOISIE Érables/Fleurimont",,  45.516178, -75.739843,,,0,2
7114,7114,"ARRÊT DE COURTOISIE Montréal/Brabant",,  45.530115, -75.472902,,,0,2
7115,7115,"ARRÊT DE COURTOISIE Montréal/Forteresse",,  45.529940, -75.472817,,,0,2
7116,7116,"ARRÊT DE COURTOISIE Montréal/Brabant",,  45.531081, -75.470200,,,0,2
7117,7117,"ARRÊT DE COURTOISIE Montréal/ Brabant",,  45.530946, -75.470058,,,0,2
7118,7118,"ARRÊT DE COURTOISIE Montréal/Brabant",,  45.532372, -75.462552,,,0,2
7119,7119,"ARRÊT DE COURTOISIE Montréal/ Brabant",,  45.532184, -75.462435,,,0,2
7120,7120,"ARRÊT DE COURTOISIE Montréal/Brabant",,  45.534531, -75.453848,,,0,2
7121,7121,"ARRÊT DE COURTOISIE Montréal/Brabant",,  45.534361, -75.453693,,,0,2
7122,7122,"ARRÊT DE COURTOISIE Montréal/Brabant",,  45.537561, -75.443344,,,0,2
7123,7123,"ARRÊT DE COURTOISIE Montréal/Brabant",,  45.537444, -75.443266,,,0,2
7124,7124,"ARRÊT DE COURTOISIE Montréal/Kendall",,  45.540374, -75.435168,,,0,2
7125,7125,"ARRÊT DE COURTOISIE Montréal/Kendall",,  45.540239, -75.434988,,,0,2
7130,7130,"ARRÊT DE COURTOISIE Pink/Klock",,  45.441598, -75.823412,,,0,2
7131,7131,"ARRÊT DE COURTOISIE Pink/Kolck",,  45.441355, -75.823383,,,0,2
7132,7132,"ARRÊT DE COURTOISIE Pink/Klock",,  45.441009, -75.832635,,,0,2
7133,7133,"ARRÊT DE COURTOISIE Pink/Klock",,  45.440695, -75.832605,,,0,2
7134,7134,"ARRÊT DE COURTOISIE Pink/Klock",,  45.440541, -75.839981,,,0,2
7135,7135,"ARRÊT DE COURTOISIE Pink/Klock",,  45.440164, -75.839847,,,0,2
7136,7136,"ARRÊT DE COURTOISIE Pink/Klock",,  45.440021, -75.847120,,,0,2
7137,7137,"ARRÊT DE COURTOISIE Pink/Klock",,  45.439644, -75.847000,,,0,2
7138,7138,"ARRÊT DE COURTOISIE Pink/Scholle",,  45.439445, -75.854285,,,0,2
7139,7139,"ARRÊT DE COURTOISIE Pink/Scholle",,  45.439094, -75.854279,,,0,2
7140,7140,"ARRÊT DE COURTOISIE Pink/Scholle",,  45.438973, -75.860862,,,0,2
7141,7141,"ARRÊT DE COURTOISIE Pink/Scholle",,  45.438604, -75.860806,,,0,2
7142,7142,"ARRÊT DE COURTOISIE Pink/Scholle",,  45.438452, -75.867771,,,0,2
7143,7143,"ARRÊT DE COURTOISIE Pink/Scholle",,  45.438093, -75.867676,,,0,2
7144,7144,"ARRÊT DE COURTOISIE Pink/Vivaldi",,  45.437861, -75.875664,,,0,2
7145,7145,"ARRÊT DE COURTOISIE Pink/Vivaldi",,  45.437575, -75.875652,,,0,2
7146,7146,"ARRÊT DE COURTOISIE Perry/Pink",,  45.443067, -75.881141,,,0,2
7147,7147,"ARRÊT DE COURTOISIE Perry/Pink",,  45.443063, -75.881639,,,0,2
7148,7148,"ARRÊT DE COURTOISIE Perry/Pink",,  45.448243, -75.882193,,,0,2
7149,7149,"ARRÊT DE COURTOISIE Perry/Pink",,  45.448258, -75.882628,,,0,2
7150,7150,"ARRÊT DE COURTOISIE Perry/Cook",,  45.453583, -75.883159,,,0,2
7151,7151,"ARRÊT DE COURTOISIE Perry/Chevreuils",,  45.458188, -75.883640,,,0,2
7152,7152,"ARRÊT DE COURTOISIE Perry/Ravin",,  45.462675, -75.884183,,,0,2
7153,7153,"ARRÊT DE COURTOISIE  Grande-Allée/des Saisons",,  45.464198, -75.890201,,,0,2
7154,7154,"ARRÊT DE COURTOISIE  Grande Allée/des Saisons",,  45.454468, -75.889065,,,0,2
7156,7156,"ARRÊT DE COURTOISIE Cook/Boisvert",,  45.452700, -75.877403,,,0,2
7157,7157,"ARRÊT DE COURTOISIE Cook/Boisvert",,  45.452942, -75.877470,,,0,2
7158,7158,"ARRÊT DE COURTOISIE Cook/Boisvert",,  45.453122, -75.870529,,,0,2
7159,7159,"ARRÊT DE COURTOISIE Cook/Boisvert",,  45.453490, -75.870624,,,0,2
7160,7160,"ARRÊT DE COURTOISIE Cook/Boisvert",,  45.453730, -75.862737,,,0,2
7161,7161,"ARRÊT DE COURTOISIE Cook/Boisvert",,  45.454034, -75.862971,,,0,2
7162,7162,"ARRÊT DE COURTOISIE Cook/Beaumont",,  45.454156, -75.856348,,,0,2
7163,7163,"ARRÊT DE COURTOISIE Cook/Beaumont",,  45.454578, -75.856521,,,0,2
7164,7164,"ARRÊT DE COURTOISIE Cook/Klock",,  45.454658, -75.849322,,,0,2
7165,7165,"ARRÊT DE COURTOISIE Cook/Klock",,  45.455063, -75.849417,,,0,2
7166,7166,"ARRÊT DE COURTOISIE Cook/Klock",,  45.455160, -75.842333,,,0,2
7167,7167,"ARRÊT DE COURTOISIE Cook/Klock",,  45.455610, -75.842340,,,0,2
7168,7168,"ARRÊT DE COURTOISIE Cook/Simmons",,  45.455598, -75.834180,,,0,2
7169,7169,"ARRÊT DE COURTOISIE Cook/Simmons",,  45.456165, -75.834214,,,0,2
7170,7170,"ARRÊT DE COURTOISIE Cook/Simmons",,  45.456157, -75.826681,,,0,2
7171,7171,"ARRÊT DE COURTOISIE Cook/Simmons",,  45.456660, -75.826752,,,0,2
7172,7172,"ARRÊT DE COURTOISIE Vanier/Cook",,  45.458516, -75.821510,,,0,2
7173,7173,"ARRÊT DE COURTOISIE Vanier/Cook",,  45.458558, -75.821958,,,0,2
7174,7174,"ARRÊT DE COURTOISIE Montagne/Skyridge",,  45.461127, -75.816418,,,0,2
7175,7175,"ARRÊT DE COURTOISIE Montagne/Skyridge",,  45.461553, -75.816015,,,0,2
7176,7176,"ARRÊT DE COURTOISIE Montagne/Cook",,  45.458847, -75.810540,,,0,2
7177,7177,"ARRÊT DE COURTOISIE Montagne/Cook",,  45.459344, -75.810253,,,0,2
7178,7178,"ARRÊT DE COURTOISIE Montagne/Zéphyr",,  45.457643, -75.803770,,,0,2
7179,7179,"ARRÊT DE COURTOISIE Montagne/Cook",,  45.458209, -75.803982,,,0,2
7180,7180,"ARRÊT DE COURTOISIE Montagne/Zéphyr",,  45.455471, -75.797753,,,0,2
7181,7181,"ARRÊT DE COURTOISIE Montagne/Zéphyr",,  45.455681, -75.797296,,,0,2
7182,7182,"de la MONTAGNE/des GRIVES",,  45.450420, -75.787656,,,0,2
7184,7184,"ARRÊT DE COURTOISIE Montagne/Brise",,  45.448103, -75.782879,,,0,2
7186,7186,"ARRÊT DE COURTOISIE Montagne/Pink",,  45.445299, -75.778365,,,0,2
7188,7188,"ARRÊT DE COURTOISIE Hochelaga/Brouage",,  45.425062, -75.791726,,,0,2
7189,7189,"ARRÊT DE COURTOISIE Montagnais/Atholl-Doune",,  45.415657, -75.788911,,,0,2
7190,7190,"ARRÊT DE COURTOISIE Port-Royal/St-Malo",,  45.418897, -75.792944,,,0,2
7192,7192,"de la MONTAGNE/des GRIVES",,  45.450522, -75.787622,,,0,2
7194,7194,"ARRÊT DE COURTOISIE Montagne/Brise",,  45.448157, -75.782829,,,0,2
7250,7250,"ARRÊT DE COURTOISIE Perry/Cook",,  45.453577, -75.883242,,,0,2
7251,7251,"ARRÊT DE COURTOISIE Perry/Chevreuils",,  45.458180, -75.883773,,,0,2
7252,7252,"ARRÊT DE COURTOISIE Perry/Ravin",,  45.462669, -75.884301,,,0,2
7253,7253,"ARRÊT DE COURTOISIE  gande-allée/des saisons",,  45.464199, -75.890197,,,0,2
7254,7254,"ARRÊT DE COURTOISIE  Grande Allée/des Saisons",,  45.454468, -75.889065,,,0,2
8010,8010,"TACHÉ-UQO #2",,  45.423973, -75.731812,,,0,1
8011,8011,"TACHÉ-UQO #1",,  45.423786, -75.732102,,,0,1
8020,8020,"Station MONTCALM bretelle dir nord #2",,  45.430826, -75.729037,,,0,1
8021,8021,"Station MONTCALM bretelle dir sud #1",,  45.430467, -75.729220,,,0,1
8022,8022,"Station MONTCALM #5",,  45.430194, -75.729550,,,0,1
8023,8023,"Station MONTCALM #4",,  45.429930, -75.729714,,,0,1
8030,8030,"Station LES GALERIES #2",,  45.442445, -75.727844,,,0,1
8031,8031,"Station LES GALERIES #1",,  45.441617, -75.728217,,,0,1
8040,8040,"Station CASINO #2",,  45.445507, -75.727615,,,0,1
8041,8041,"Station CASINO #1",,  45.446046, -75.727813,,,0,1
8050,8050,"Station LAC LEAMY #2",,  45.452517, -75.729380,,,0,1
8051,8051,"Station LAC LEAMY #1",,  45.450889, -75.729080,,,0,1
8060,8060,"Station de la GAPPE #3",,  45.469344, -75.715960,,,0,1
8061,8061,"Station de la GAPPE #1",,  45.469265, -75.716456,,,0,1
8063,8063,"Station de la GAPPE #2",,  45.469502, -75.716100,,,0,1
8070,8070,"Station PROMENADES #2",,  45.477737, -75.697860,,,0,1
8071,8071,"Station PROMENADES #1",,  45.478011, -75.697185,,,0,1
8072,8072,"STATION LOCALE LES PROMENADES",,  45.478003, -75.697566,,,0,1
8080,8080,"Station de la CITÉ #3",,  45.481150, -75.683356,,,0,1
8081,8081,"Station de la CITÉ #1",,  45.481111, -75.684240,,,0,1
8083,8083,"Station de la CITÉ #2",,  45.481261, -75.683737,,,0,1
8090,8090,"Station GOUIN #2",,  45.486146, -75.661288,,,0,1
8091,8091,"Station GOUIN #1",,  45.486232, -75.661942,,,0,1
8110,8110,"Station Lac Beauchamp #2",,  45.493334, -75.621955,,,0,1
8111,8111,"Station Lac Beauchamp #1",,  45.493500, -75.622495,,,0,1
8500,8500,"Station LABROSSE #04",,  45.490393, -75.643424,,,0,1
8501,8501,"Station LABROSSE #1",,  45.490435, -75.643848,,,0,1
8505,8505,"Station LABROSSE #3",,  45.490550, -75.643331,,,0,1
9000,9000,"des ALLUMETTIÈRES/de NOTRE-DAME-DE-L'ÎLE",,  45.432128, -75.711078,,,0,1
9034,9034,"FICTIF DÉPART CNF",,  45.443775, -75.748344,,,0,2
9036,9036,"FICTIF GRANDE RIVIÈRE - Départ",,  45.404644, -75.844616,,,0,2
9037,9037,"FICTIF GRANDE RIVIÈRE - Arrivée",,  45.404107, -75.844558,,,0,2
9038,9038,"ALLUMETTIÈRES/LAURIER",,  45.432337, -75.710468,,,0,1
9045,9045,"BÉRIAULT/FOURNIER",,  45.446136, -75.713360,,,0,2
9046,9046,"LAMBERT/BÉRIAULT",,  45.446228, -75.717049,,,0,2
9047,9047,"BÉRIAULT/LAMBERT",,  45.446490, -75.716581,,,0,2
9048,9048,"LAMBERT/JOANISSE",,  45.444926, -75.716955,,,0,2
9049,9049,"LAMBERT/JOANISSE",,  45.444261, -75.716324,,,0,2
9050,9050,"LAMBERT/FOURNIER",,  45.443992, -75.713836,,,0,2
9602,9602,"ÉCOLE SAINT-JOSEPH (fictif)",,  45.431621, -75.709901,,,0,2
9603,9603,"ÉCOLE SAINT-ALEXANDRE",,  45.492611, -75.749993,,,0,2
9604,9604,"ÉCOLE SAINT-ALEXANDRE (fictif arrivé)",,  45.492575, -75.749954,,,0,2
9735,9735,"STATION DE LA GAPPE",,  45.468865, -75.716299,,,0,1
9805,9805,"du PLATEAU/d'AMSTERDAM",,  45.432394, -75.806087,,,0,1
9807,9807,"SPORTHÈQUE",,  45.467659, -75.740200,,,0,2
9808,9808,"CENTRE PÈRE ARTHUR-GUERTIN",,  45.446093, -75.713887,,,0,2
9818,9818,"ÉCOLE NOUVELLE-ÈRE",,  45.397860, -75.824848,,,0,2
9819,9819,"ÉCOLE NOUVELLE-ÈRE départ pm",,  45.397860, -75.824848,,,0,2
9833,9833,"ÉCOLE DE LA CITÉ",,  45.434355, -75.803954,,,0,2
9834,9834,"ÉCOLE SECONDAIRE MONT-BLEU",,  45.461990, -75.770415,,,0,1
9835,9835,"ÉCOLE SECONDAIRE MONT-BLEU",,  45.462005, -75.770430,,,0,1
